,longitude,latitude,zipcode,num_bedrooms,num_bathrooms,listing_price,neighborhood,street_address
0,-97.73637,30.30002,78705,1.0,1.0,102.0,University of Texas,302 West 35th Street
1,-97.71377,30.27752,78702,2.0,2.0,179.0,East Downtown,1408 Cedar Avenue
2,-97.7132,30.27614,78702,1.0,1.0,114.0,East Downtown,1301 Cedar Avenue
3,-97.73441,30.26057,78702,1.0,1.0,104.0,East Downtown,1004 East Cesar Chavez Street
4,-97.78422,30.45697,78729,1.0,1.0,39.0,SW Williamson Co.,9508 Newberry Drive
6,-97.76487,30.26034,78704,1.0,1.0,149.0,Zilker,705 Garner Avenue
7,-97.73682,30.23466,78741,1.0,1.0,44.0,East Riverside,1704 Windoak Drive
8,-97.73072,30.26098,78702,2.0,2.0,150.0,East Downtown,205 Attayac Street
9,-97.73988,30.24417,78704,2.0,2.0,200.0,Travis Heights,1103 Reagan Terrace
10,-97.76358,30.38794,78759,2.0,2.0,153.0,,8767 North Capital of Texas Highway
11,-97.73225,30.23614,78741,1.0,1.0,58.0,East Riverside,1804 Crooked Lane
12,-97.76207,30.35123,78731,2.0,2.0,350.0,Northwest Hills,6502 Shadow Valley Drive
13,-97.70749,30.37783,78758,1.0,1.0,35.0,,10204 Oak Hollow Drive
14,-97.75145,30.28588,78705,2.0,2.0,117.0,West Campus,1202 West 22nd Street
15,-97.76995,30.25756,78704,1.0,1.0,88.0,Zilker,1206 Folts Avenue
16,-97.77276,30.26146,78704,1.0,1.0,131.0,Zilker,1135 Barton Hills Drive
17,-97.76368,30.25811,78704,1.0,1.0,299.0,Zilker,900 Ethel Street
18,-97.76619,30.2309,78704,1.0,1.0,129.0,Dawson,3507 South 1st Street
19,-97.76611,30.23644,78704,1.0,1.0,225.0,Galindo,801 Terrell Hill Drive
20,-97.74913,30.24648,78704,1.0,1.0,150.0,South Congress,203 East Milton Street
21,-97.75066,30.313,78731,1.0,1.0,89.0,Rosedale,4006 Ridgelea Drive
22,-97.73183,30.41419,78727,2.0,2.0,280.0,Angus Valley,Covenant United Methodist Church 4410
23,-97.74478,30.29016,78705,2.0,2.0,97.0,West Campus,2508 Rio Grande Street
24,-97.77923,30.24473,78704,1.0,1.0,150.0,South Lamar,Matt's El Rancho 2613
25,-97.76886,30.29033,78703,1.0,1.0,119.0,Tarrytown,2410 Bridle Path
26,-97.75805,30.27678,78703,2.0,2.0,151.0,West Austin,1317 West 10th Street
27,-97.71939,30.29192,78722,1.0,1.0,110.0,Upper Boggy Creek,3414 Hollywood Avenue
28,-97.72491,30.26945,78702,5.0,5.0,297.0,East Downtown,1156 Angelina Street
29,-97.72552,30.25505,78702,3.0,3.0,400.0,Holly,75 Chicon Street
30,-97.74521,30.23872,78704,1.0,1.0,80.0,Travis Heights,2102 Travis Heights Boulevard
31,-97.882,30.33877,78733,1.0,1.0,104.0,,611 Riders Trail
32,-97.77985,30.25023,78704,2.0,2.0,179.0,Zilker,2207 De Verne Street
33,-97.76772,30.25659,78704,4.0,4.0,750.0,Zilker,1209 Garner Avenue
34,-97.74799,30.27672,78701,3.0,3.0,240.0,Downtown,Austin Community College Rio Grande Campus 5930
35,-97.71135,30.27443,78702,3.0,3.0,75.0,MLK & 183,2761 New York Drive
36,-97.72373,30.31106,78751,1.0,1.0,109.0,Hyde Park,4713 Avenue G
38,-97.75896,30.24948,78704,2.0,2.0,182.0,Bouldin Creek,1703 Bouldin Avenue
39,-97.73253,30.26035,78702,2.0,2.0,225.0,East Downtown,104 Waller Street
40,-97.76874,30.28251,78703,3.0,3.0,150.0,Old West Austin,2113 West 10th Street
41,-97.68872,30.30393,78723,3.0,3.0,300.0,Windsor Park,5302 Peacedale Lane
42,-97.71851,30.32395,78752,1.0,1.0,57.0,Highland,5805 Avenue F
43,-97.74188,30.29386,78705,1.0,1.0,81.0,West Campus,2801 Guadalupe Street
44,-97.72618,30.35681,78757,4.0,4.0,329.0,Wooten,2002 Pompton Drive
45,-97.74935,30.24498,78704,2.0,2.0,161.0,Travis Heights,1806 Brackenridge Street
46,-97.77582,30.25433,78704,1.0,1.0,101.0,Zilker,2106 Rundell Place
47,-97.74701,30.24645,78704,2.0,2.0,150.0,Galindo,1602 Newning Avenue
48,-97.72945,30.3027,78751,1.0,1.0,126.0,Hyde Park,4007 Avenue G
49,-97.73148,30.30244,78751,1.0,1.0,60.0,Hyde Park,3823 Avenue F
50,-97.74793,30.27521,78701,3.0,3.0,259.0,Downtown,Pease Elementary School 1106
51,-98.00244,30.24395,78736,3.0,3.0,295.0,,11004 Little Thicket Road
52,-97.73046,30.30215,78751,2.0,2.0,142.0,Hyde Park,3912 Avenue G
53,-97.73037,30.30397,78751,1.0,1.0,126.0,Hyde Park,4100 Avenue F
54,-97.74235,30.30203,78705,1.0,1.0,150.0,University of Texas,720 West 34th Street
55,-97.88915,30.41813,78732,2.0,2.0,121.0,,13909 Panorama Drive
56,-97.78491,30.25288,78704,4.0,4.0,699.0,Barton Hills,2722 Barton Skyway
57,-97.76194,30.2415,78704,1.0,1.0,299.0,Zilker,2408 South 3rd Street
58,-97.79126,30.27767,78746,4.0,4.0,800.0,Rollingwood,433 Brady Lane
59,-97.71233,30.33238,78752,4.0,4.0,271.0,Highland,6817 Miranda Drive
60,-97.77315,30.24106,78704,2.0,2.0,136.0,South Lamar,1409 Summer Creek Drive
61,-97.76703,30.25775,78704,4.0,4.0,750.0,Zilker,1101 Garner Avenue
62,-97.74678,30.24867,78704,1.0,1.0,79.0,Travis Heights,301 Park Lane
63,-97.75608,30.27655,78703,1.0,1.0,175.0,Clarksville,913 Shelley Avenue
64,-97.73069,30.24434,78741,2.0,2.0,165.0,East Riverside,El Tacorrido: Authentic Mexican Taqueria 1701
65,-97.699829,30.263203,78702,3.0,3.0,174.0,Govalle,1100 Gunter Street
66,-97.64397,30.36145,78754,1.0,1.0,29.0,,11020 Boundless Valley Drive
68,-97.7313,30.25753,78702,3.0,3.0,500.0,East Downtown,78 Navasota Street
70,-97.75095,30.24822,78704,3.0,3.0,395.0,East Downtown,107 West Monroe Street
71,-97.72961,30.30289,78751,2.0,2.0,129.0,Hyde Park,4009 Avenue G
72,-97.75628,30.252,78704,2.0,2.0,152.0,Bouldin Creek,1304 South 3rd Street
73,-97.68465,30.30339,78723,3.0,3.0,175.0,Windsor Park,5416 Coventry Lane
74,-97.72874,30.25572,78702,2.0,2.0,239.0,Cesar Chavez,1612 Garden Street
75,-97.75479,30.23254,78704,3.0,3.0,110.0,St. Edwards,St. Edward's University 3001
76,-97.77253,30.25367,78704,2.0,2.0,250.0,Zilker,1801 Bluebonnet Lane
77,-97.76272,30.28332,78703,5.0,5.0,235.0,Clarksville,1721 Palma Plaza
78,-97.70708,30.28032,78702,3.0,3.0,350.0,Rosewood,1705 Clifford Avenue
79,-97.7078,30.36774,78758,3.0,3.0,86.0,,1311 West Rundberg Lane
80,-97.74223,30.22484,78741,4.0,4.0,212.0,St. Edwards,1750 Timber Ridge Road
81,-97.79003,30.19037,78745,3.0,3.0,191.0,West Congress,606 Meadow Lea Drive
82,-97.75756,30.25525,78704,1.0,1.0,138.0,Bouldin Creek,912 Columbus Street
83,-97.7269,30.2733,78702,1.0,1.0,60.0,East Downtown,1204 San Bernard Street
84,-97.77117,30.20943,78745,1.0,1.0,69.0,East Congress,5100 1/2 Wasson Road
85,-97.79621,30.35672,78730,2.0,2.0,350.0,Long Canyon,6001 Shepherd Mountain Cove
86,-97.77901,30.21467,78745,3.0,3.0,600.0,South Manchaca,5007 Aberdeen Drive
87,-97.75562,30.25472,78704,2.0,2.0,400.0,Bouldin Creek,808 Columbus Street
88,-97.70824,30.26772,78702,2.0,2.0,395.0,Rosewood,Eastside Early College High School 901
89,-97.73328,30.26585,78702,5.0,5.0,579.0,East Downtown,601 Brushy Street
90,-97.72968,30.25328,78702,2.0,2.0,694.0,East Downtown,Martin Middle School 1601
91,-97.64966,30.28354,78724,3.0,3.0,187.0,,Agatha Circle Meadows at Trinity Crossing
92,-97.77856,30.25398,78704,3.0,3.0,679.0,Barton Hills,2000 Arthur Lane
93,-97.78973,30.25104,78704,3.0,3.0,500.0,Barton Hills,2934 Kassarine Pass
94,-97.71874,30.26849,78702,3.0,3.0,240.0,East Downtown,1913 Cornell Street
95,-97.74548,30.26843,78701,2.0,2.0,178.0,Downtown,301 West 6th Street
96,-97.73881,30.29905,78705,1.0,1.0,82.0,University of Texas,401 West 33rd Street
97,-97.75472,30.24583,78704,5.0,5.0,499.0,Bouldin Creek,313 West Mary Street
98,-97.74457,30.32619,78756,1.0,1.0,97.0,Allendale,5105 Shoal Creek Boulevard
99,-97.80794,30.30085,78746,3.0,3.0,495.0,Westlake Hills,813 Caravan Circle
100,-97.72579,30.27232,78702,1.0,1.0,64.0,East Downtown,1309 East 12th Street
101,-97.76359,30.44934,78729,2.0,2.0,111.0,,13006 Tantivy Drive
102,-97.58625,30.23911,78725,1.0,1.0,100.0,,14504 Rumfeldt Street
103,-97.65419,30.37019,78754,1.0,1.0,109.0,,East Braker Lane Pioneer Crossing West
104,-97.76641,30.31267,78703,5.0,5.0,275.0,Tarrytown,31 Woodstone Square
105,-97.75262,30.25381,78704,1.0,1.0,102.0,South First,Texas School for the Deaf 1102
106,-97.72379,30.24481,78741,2.0,2.0,250.0,Riverside Heights,Lady Bird Lake Hike and Bike Trail Lakeshore
107,-97.85577,30.20621,78749,4.0,4.0,1750.0,Cherry Creek,4632 Moose Drive
108,-97.73338,30.24026,78741,2.0,2.0,190.0,East Riverside,1705 Taylor Gaines Street
109,-97.76685,30.42035,78759,1.0,1.0,80.0,,11203 Oak View Drive
110,-97.79249,30.25937,78746,1.0,1.0,400.0,Barton Hills,1857 Spyglass Drive
111,-97.72531,30.33061,78757,2.0,2.0,50.0,Brentwood,907 Romeria Drive
112,-97.71338,30.26543,78702,4.0,4.0,750.0,East Downtown,806 Northwestern Avenue
113,-97.75904,30.24623,78704,2.0,2.0,110.0,South First,706 West Johanna Street
114,-97.73147,30.25158,78702,1.0,1.0,125.0,East Downtown,Martin Middle School 1601
115,-97.75228,30.41633,78759,1.0,1.0,40.0,,Austin Travis County
116,-97.68947,30.26895,78721,1.0,1.0,99.0,MLK & 183,1141 Don Ann Street
118,-97.74796,30.27247,78701,2.0,2.0,299.0,Downtown,605 West 9th Street
119,-97.74569,30.24619,78704,3.0,3.0,284.0,Travis Heights,509 East Monroe Street
120,-97.76157,30.2466,78704,2.0,2.0,209.0,Bouldin Creek,2000 Bouldin Avenue
121,-97.71715,30.26448,78702,2.0,2.0,125.0,East Downtown,2301 East 10th Street
122,-97.7449,30.23661,78704,3.0,3.0,534.0,Travis Heights,1100 East Oltorf Street
123,-97.72768,30.30224,78751,2.0,2.0,186.0,Hancock,4014 Duval Street
124,-97.72965,30.27119,78702,2.0,2.0,250.0,East Downtown,1180 Curve Street
125,-97.76212,30.25152,78704,2.0,2.0,643.0,Bouldin Creek,South 7th Street Evergreen Heights
126,-97.72332,30.27871,78702,1.0,1.0,122.0,,1803 Leona Street
127,-97.77631,30.29932,78703,1.0,1.0,75.0,Tarrytown,2106 Schulle Avenue
128,-97.64937,30.33345,78754,1.0,1.0,75.0,,9106 Wellesley Drive
129,-97.74525,30.2398,78704,1.0,1.0,58.0,Travis Heights,2101 Alta Vista Avenue
130,-97.75211,30.24276,78704,4.0,4.0,575.0,South Congress,Ben's Workshop 2109
131,-97.80069,30.34574,78746,2.0,2.0,225.0,,Plaza on the Lake Austin
132,-97.76343,30.24821,78704,1.0,1.0,149.0,Bouldin Creek,1902 South 6th Street
133,-97.73056,30.25884,78702,3.0,3.0,630.0,East Downtown,1401 East Cesar Chavez Street
134,-97.76001,30.28885,78703,2.0,2.0,248.0,Old Enfield,2206 Hartford Road
135,-97.7747,30.22187,78745,1.0,1.0,110.0,South Manchaca,709 West Saint Elmo Road
136,-97.74724,30.24748,78704,3.0,3.0,1000.0,Travis Heights,1513 Drake Avenue
137,-97.77907,30.23928,78704,1.0,1.0,100.0,South Lamar,3206 Aldwyche Drive
138,-97.75393,30.28097,78703,1.0,1.0,97.0,Clarksville,1504 Windsor Road
139,-97.76974,30.3054,78703,3.0,3.0,1050.0,Tarrytown,2621 Pecos Street
140,-97.69464,30.30571,78723,3.0,3.0,300.0,Windsor Park,1807 Running Brook Drive
141,-97.74276,30.28184,78701,2.0,2.0,399.0,Downtown,1808 San Antonio Street
142,-97.76854,30.25478,78704,2.0,2.0,185.0,Zilker,1503 Garner Avenue
143,-97.72007,30.3124,78751,1.0,1.0,92.0,Hancock,507 East 50th Street
144,-97.76695,30.22971,78704,2.0,2.0,800.0,Dawson,Galindo Austin
145,-97.74547,30.31744,78756,2.0,2.0,625.0,Allendale,2501 West 45th Street
146,-97.77582,30.25433,78704,1.0,1.0,73.0,Zilker,2106 Rundell Place
147,-97.77202,30.25795,78704,5.0,5.0,943.0,Zilker,1303 Azie Morton Road
148,-97.75301,30.27371,78703,1.0,1.0,225.0,Old West Austin,724 North Lamar Boulevard
149,-97.92007,30.39243,78734,1.0,1.0,210.0,,3721 Copper Ridge Court
150,-97.76978,30.25954,78704,3.0,3.0,334.0,Zilker,2003 Dexter Street
151,-97.73425,30.25917,78702,3.0,3.0,421.0,East Downtown,1011 Willow Street
152,-97.72278,30.30651,78751,2.0,2.0,268.0,Hancock,610 East 45th Street
153,-97.68447,30.26309,78721,3.0,3.0,164.0,MLK & 183,1113 Mahan Drive
154,-97.72797,30.3068,78751,1.0,1.0,106.0,Hyde Park,4313 Avenue F
155,-97.77147,30.30549,78703,4.0,4.0,2150.0,Tarrytown,3307 River Road
156,-97.75181,30.25858,78704,2.0,2.0,650.0,South First,Town Lake Center 721
157,-97.74359,30.2538,78704,2.0,2.0,418.0,Travis Heights,400 East Riverside Drive
158,-97.76343,30.24699,78704,1.0,1.0,88.0,Bouldin Creek,1004 Brodie Street
159,-97.756,30.25909,78704,1.0,1.0,150.0,Bouldin Creek,1009 Daniel Drive
160,-97.7522,30.23899,78704,1.0,1.0,47.0,South Congress,2301 South Congress Avenue
161,-97.68182,30.295,78723,3.0,3.0,239.0,Mueller,5006 Pecan Springs Road
162,-97.75371,30.241,78704,2.0,2.0,94.0,South Congress,2215 Lindell Avenue
163,-97.76135,30.33875,78731,3.0,3.0,695.0,South Congress,5606 Ridge Oak Drive
164,-97.77566,30.26139,78704,1.0,1.0,104.0,Barton Hills,1307 Barton Hills Drive
165,-97.74894,30.27241,78701,1.0,1.0,82.0,Downtown,804 Rio Grande Street
166,-97.71573,30.26529,78702,2.0,2.0,200.0,East Downtown,2408 East 10th Street
167,-97.79728,30.29948,78746,4.0,4.0,343.0,Westlake Hills,1509 Wildcat Hollow
168,-97.731,30.3239,78756,2.0,2.0,113.0,Brentwood,5407 Sunshine Drive
169,-97.75195,30.258,78704,1.0,1.0,45.0,South First,Town Lake Center 721
171,-97.74596,30.25282,78704,2.0,2.0,299.0,South Congress,210 Le Grande Avenue
172,-97.8616,30.34253,78733,3.0,3.0,259.0,,2100 Mecca Road
173,-97.81729,30.20976,78745,2.0,2.0,250.0,,6810 Deatonhill Drive
174,-97.73449,30.29961,78705,1.0,1.0,121.0,University of Texas,3500 Speedway
175,-97.74362,30.27936,78701,1.0,1.0,105.0,Downtown,Guadalupe Garage San Antonio Street
176,-97.73739,30.34024,78757,2.0,2.0,125.0,Brentwood,6508 Laird Drive
177,-97.76328,30.2619,78704,1.0,1.0,99.0,Zilker,1610 Virginia Avenue
178,-97.74502,30.24852,78704,3.0,3.0,255.0,Travis Heights,1409 Newning Avenue
179,-97.71954,30.27514,78702,1.0,1.0,100.0,East Downtown,1906 East 13th Street
180,-97.786,30.2478,78704,3.0,3.0,371.0,Barton Hills,2807 Oak Park Drive
181,-97.79371,30.25289,78704,1.0,1.0,55.0,Barton Hills,2609 Barton Hills Drive
182,-97.76377,30.25881,78704,1.0,1.0,101.0,Zilker,803 Kinney Avenue
183,-97.76627,30.24546,78704,1.0,1.0,100.0,Bouldin Creek,2304 Perry Avenue
184,-97.75394,30.24373,78704,3.0,3.0,797.0,South Congress,2020 Condominiums Crockett Street
185,-97.7331,30.35992,78757,1.0,1.0,75.0,North Shoal Creek,2507 Ashdale Drive
186,-97.7971,30.20451,78745,3.0,3.0,191.0,West Congress,6403 Capriola Drive
187,-97.67689,30.30308,78723,2.0,2.0,83.0,Pecan Spings,Pecan Springs Elementary 3100
188,-97.76119,30.24492,78704,1.0,1.0,117.0,Bouldin Creek,2206 South 3rd Street
189,-97.71398,30.29991,78722,1.0,1.0,70.0,Upper Boggy Creek,1302 Crestwood Road
190,-97.71979,30.29087,78722,1.0,1.0,55.0,Cherrywood,3311 Hollywood Avenue
191,-97.75258,30.28714,78705,1.0,1.0,65.0,West Campus,2301 Shoal Creek Boulevard
192,-97.71989,30.27191,78702,2.0,2.0,159.0,East Downtown,1800 Pennsylvania Avenue
193,-97.71702,30.28273,78722,2.0,2.0,191.0,Upper Boggy Creek,2100 Maple Avenue
194,-97.76115,30.36089,78731,5.0,5.0,3000.0,Northwest Hills,7301 Running Rope
195,-97.77104,30.28264,78703,2.0,2.0,107.0,West Austin,2311 West 9th Street
196,-97.75098,30.27808,78703,1.0,1.0,190.0,,1300 North Lamar Boulevard
197,-98.00722,30.22072,78737,1.0,1.0,125.0,,13066 Shoshoni Trail
198,-97.73897,30.25084,78704,4.0,4.0,522.0,Travis Heights,812 Edgecliff Terrace
199,-97.73968,30.2438,78704,1.0,1.0,102.0,Travis Heights,1106 Mission Ridge
200,-97.75095,30.27508,78701,2.0,2.0,899.0,Downtown,825 West 11th Street
201,-97.73007,30.25699,78702,2.0,2.0,300.0,East Downtown,1505 Canterbury Street
202,-97.77303,30.25278,78704,2.0,2.0,139.0,Zilker,1903 Bluebonnet Lane
203,-97.72924,30.33529,78757,2.0,2.0,160.0,Galindo,1315 Payne Avenue
204,-97.75165,30.26869,78703,2.0,2.0,493.0,Downtown,Shoal Creek Trail Seaholm
205,-97.85608,30.34998,78733,1.0,1.0,82.0,,2912 Padina Drive
206,-97.77864,30.24831,78704,3.0,3.0,650.0,Zilker,2100 Montclaire Street
207,-97.75664,30.24706,78704,2.0,2.0,359.0,South First,606 West Mary Street
208,-97.74113,30.27089,78701,1.0,1.0,170.0,Downtown,Millett Opera House 110
209,-97.80159,30.15374,78748,1.0,1.0,66.0,,205 1/2 Camperdown Elm Drive
210,-97.80261,30.15391,78748,1.0,1.0,49.0,,213 Camperdown Elm Drive
211,-97.79612,30.27294,78746,3.0,3.0,2000.0,Rollingwood,4 Peak Road South
212,-97.75612,30.2803,78703,4.0,4.0,820.0,Clarksville,1404 West 13th Street
214,-97.76011,30.3513,78731,3.0,3.0,275.0,Northwest Hills,6307 Shadow Valley Drive
215,-97.75171,30.23537,78704,1.0,1.0,55.0,St. Edwards,506 Long Bow Lane
216,-97.74225,30.24313,78704,2.0,2.0,545.0,Travis Heights,1705 Travis Heights Boulevard
217,-97.74658,30.25689,78704,1.0,1.0,250.0,South Congress,New World Liquor East Riverside Drive
218,-97.75381,30.31268,78731,3.0,3.0,185.0,Rosedale,1904 West 39th Street
219,-97.78186,30.19411,78745,1.0,1.0,400.0,West Congress,207 West William Cannon Drive
220,-97.75971,30.28065,78703,1.0,1.0,225.0,Clarksville,1612 West 12th Street
221,-97.74446,30.37102,78759,3.0,3.0,1250.0,Balcones Civic Association,8311 Summer Side Drive
222,-97.74167,30.2991,78705,3.0,3.0,228.0,University of Texas,609 West 32nd Street
223,-97.7384,30.24758,78704,2.0,2.0,286.0,Travis Heights,1015 Avondale Road
224,-97.76556,30.2307,78704,1.0,1.0,300.0,Dawson,Alpine Village 412
225,-97.76233,30.23573,78704,3.0,3.0,308.0,Dawson,514 Sacramento Drive
226,-97.72823,30.24618,78741,1.0,1.0,175.0,Riverside Heights,Lady Bird Lake Hike and Bike Trail - Boardwalk Sunnydale
227,-97.74713,30.24654,78704,1.0,1.0,187.0,Travis Heights,405 East Monroe Street
228,-97.77596,30.28243,78703,4.0,4.0,2250.0,West Austin,7-Eleven West 7th Street
229,-97.69897,30.26444,78702,2.0,2.0,132.0,Govalle,1108 Gunter Street
230,-97.77914,30.24187,78704,1.0,1.0,233.0,South Lamar,2000 Cody Court
231,-97.91422,30.39968,78734,3.0,3.0,1100.0,,14622 Agarita Road
232,-97.78022,30.23305,78704,3.0,3.0,500.0,South Lamar,3805 Clawson Road
233,-97.76325,30.24103,78704,2.0,2.0,75.0,Galindo,San Juan Diego HS Herndon Lane
234,-97.65128,30.33652,78754,1.0,1.0,99.0,,9315 Springdale Road
235,-97.72945,30.24538,78741,1.0,1.0,185.0,East Riverside,AMLI South Shore Lady Bird Lake Hike and Bike Trail
236,-97.704,30.29409,78723,3.0,3.0,219.0,Mueller,2045 Zach Scott Street
237,-97.72465,30.25267,78702,3.0,3.0,120.0,Holly,2005 Holly Street
238,-97.7892,30.29727,78746,3.0,3.0,5343.0,Westlake Hills,1708 Lakeshore Drive
239,-97.76486,30.238,78704,2.0,2.0,700.0,Galindo,2801 Oak Crest Avenue
240,-97.72917,30.25275,78702,3.0,3.0,449.0,East Downtown,Martin Middle School 1601
241,-97.72846,30.27221,78702,5.0,5.0,779.0,East Downtown,1107 East 12th Street
242,-97.97659,30.32518,78738,4.0,4.0,1200.0,,4104 Peak Lookout Drive
243,-97.78813,30.18722,78745,3.0,3.0,375.0,West Congress,7402 Shadywood Drive
244,-97.72443,30.41276,78759,1.0,1.0,70.0,,11926 Dorsett Road
245,-97.72955,30.31197,78751,4.0,4.0,235.0,Hyde Park,4601 Avenue B
246,-97.69632,30.19538,78744,3.0,3.0,157.0,McKinney,7512 Cedar Edge Drive
247,-97.77017,30.25909,78704,2.0,2.0,402.0,Zilker,1106 Bluebonnet Lane
248,-97.75703,30.28026,78703,2.0,2.0,165.0,Clarksville,1210 Marshall Lane
249,-97.72862,30.2702,78702,3.0,3.0,600.0,East Downtown,1164 Waller Street
250,-97.72593,30.36084,78757,4.0,4.0,303.0,Wooten,2114 Lanier Drive
251,-97.74724,30.26836,78701,1.0,1.0,200.0,Downtown,420 West 5th Street
252,-97.78277,30.24852,78704,4.0,4.0,1000.0,Barton Hills,2404 Elmglen Drive
253,-97.75752,30.27805,78703,4.0,4.0,696.0,Old West Austin,1003 Maufrais Street
254,-97.77349,30.29624,78703,4.0,4.0,1999.0,Tarrytown,1906 Hopi Trail
255,-97.81559,30.21366,78745,1.0,1.0,106.0,,2804 Bushnell Drive
256,-97.73869,30.32255,78756,2.0,2.0,240.0,Brentwood,1418 West 51st Street
257,-97.78495,30.22437,78745,1.0,1.0,100.0,South Manchaca,1413 Redd Street
258,-97.71977,30.28554,78722,3.0,3.0,350.0,Upper Boggy Creek,2903 French Place
259,-97.7099,30.23746,78741,1.0,1.0,265.0,Pleasant Valley,Riverside Golf Course 1020
260,-97.74169,30.24369,78704,4.0,4.0,3000.0,Travis Heights,1611 Travis Heights Boulevard
261,-97.76318,30.24784,78704,2.0,2.0,431.0,Bouldin Creek,1008 West Johanna Street
262,-97.68127,30.32713,78752,1.0,1.0,125.0,St. Johns,7598 Hemmingway
263,-97.76422,30.2359,78704,2.0,2.0,199.0,Galindo,604 Terrell Hill Drive
265,-97.7486,30.27485,78701,3.0,3.0,260.0,Downtown,705 1/2 West 11th Street
266,-97.7293,30.30263,78751,1.0,1.0,102.0,Hyde Park,4007 Avenue G
267,-97.77458,30.2545,78704,7.0,7.0,948.0,Zilker,1801 Ann Arbor Avenue
268,-97.77623,30.2402,78704,2.0,2.0,195.0,South Lamar,1612 Roberts Avenue
269,-97.82678,30.44262,78726,5.0,5.0,228.0,Rosedale,11403 Hare Trail
270,-97.77877,30.24565,78704,1.0,1.0,60.0,Barton Hills,2605 South Lamar Boulevard
271,-97.7704,30.25222,78704,2.0,2.0,151.0,Zilker,1706 Bauerle Avenue
272,-97.72015,30.26379,78702,2.0,2.0,225.0,East Downtown,810 Lincoln Street
273,-97.77819,30.25211,78704,3.0,3.0,320.0,Zilker,2109 Rabb Road
274,-97.7485,30.26986,78701,2.0,2.0,135.0,Downtown,600 West 6th Street
275,-97.74462,30.33229,78756,1.0,1.0,85.0,Allendale,5604 Woodview Avenue
276,-97.77982,30.2499,78704,1.0,1.0,93.0,Zilker,2205 De Verne Street
277,-97.71919,30.27787,78702,2.0,2.0,500.0,East Downtown,2003 East 17th Street
278,-97.75126,30.32095,78731,1.0,1.0,98.0,Allendale,4600 Oakmont Boulevard
279,-97.72466,30.27188,78702,1.0,1.0,75.0,East Downtown,1400 Cotton Street
280,-97.7484,30.24563,78704,1.0,1.0,149.0,Travis Heights,1711 Brackenridge Street
281,-97.72403,30.25233,78702,1.0,1.0,144.0,Holly,2015 Holly Street
282,-97.78249,30.25259,78704,3.0,3.0,750.0,Barton Hills,2108 Barton Parkway
283,-97.77108,30.24759,78704,1.0,1.0,141.0,South Lamar,2115 South Lamar Boulevard
284,-97.72013,30.25264,78702,4.0,4.0,269.0,Holly,2302 Garden Street
285,-97.75288,30.23419,78704,1.0,1.0,45.0,St. Edwards,2616 Sherwood Lane
286,-97.70628,30.28209,78702,4.0,4.0,600.0,Rosewood,2931 East Martin Luther King Jr Boulevard
287,-97.70521,30.2917,78723,3.0,3.0,775.0,Mueller,4004 Camacho Street
288,-97.7233,30.25878,78702,5.0,5.0,593.0,East Downtown,301 Chicon Street
289,-97.74395,30.24472,78704,5.0,5.0,495.0,Travis Heights,1611 Alameda Drive
290,-97.76355,30.26227,78704,1.0,1.0,150.0,Zilker,503 Cater Drive
291,-97.74285,30.30073,78705,1.0,1.0,375.0,University of Texas,3205 West Avenue
292,-97.71609,30.26582,78702,2.0,2.0,300.0,East Downtown,2407 East 11th Street
293,-97.73167,30.25526,78702,2.0,2.0,425.0,East Downtown,1407 Holly Street
294,-97.71967,30.3614,78757,1.0,1.0,73.0,Wooten,8504 Contour Drive
295,-97.73999,30.26584,78701,3.0,3.0,265.0,Downtown,Courtyard Austin Downtown/Convention Center Trinity Street
297,-97.77935,30.23656,78704,3.0,3.0,169.0,South Lamar,3402 Clawson Road
298,-97.66868,30.39562,78753,1.0,1.0,164.0,Copperfield,305 East Yager Lane
299,-97.68606,30.37784,78753,2.0,2.0,400.0,,MT Supermarket 10901
300,-97.86482,30.22547,78749,1.0,1.0,5021.0,South Congress,5914 Charles Schreiner Trail
301,-97.76189,30.27617,78703,2.0,2.0,800.0,Old West Austin,610 West Lynn Street
302,-97.73406,30.25354,78702,2.0,2.0,250.0,East Downtown,21 Waller Street
303,-97.78312,30.23581,78704,1.0,1.0,77.0,South Lamar,3724 Valley View Road
304,-97.74351,30.24605,78704,1.0,1.0,300.0,Travis Heights,1503 Sunset Lane
305,-97.75649,30.27887,78703,1.0,1.0,280.0,Clarksville,1311 West 12th Street
306,-97.7388,30.24285,78704,2.0,2.0,650.0,Travis Heights,1601 Chelsea Lane
307,-97.72821,30.3019,78751,1.0,1.0,120.0,Hyde Park,4004 Duval Street
308,-97.74925,30.27438,78701,1.0,1.0,148.0,Downtown,1000 West Avenue
309,-97.7552,30.45601,78729,1.0,1.0,74.0,,13421 Moscow Trail
310,-97.73328,30.24509,78741,3.0,3.0,282.0,East Riverside,1508 Lupine Lane
311,-97.72185,30.32034,78751,1.0,1.0,165.0,North Loop,108 Nelray Boulevard
312,-97.80862,30.19679,78745,2.0,2.0,500.0,,Strickland Christian School 7415
313,-97.76001,30.27889,78703,2.0,2.0,1000.0,Old West Austin,919 West Lynn Street
314,-97.67033,30.38216,78753,3.0,3.0,225.0,Copperfield,11530 Spring Hill Drive
315,-97.73494,30.29738,78705,1.0,1.0,99.0,University of Texas,3301 Speedway
316,-97.74062,30.26528,78701,1.0,1.0,200.0,Downtown,305 East 4th Street
317,-97.72173,30.26679,78702,3.0,3.0,700.0,East Downtown,Blackshear Elementary School 1712
318,-97.79756,30.28175,78746,5.0,5.0,900.0,Rollingwood,512 Bulian Lane
319,-97.69227,30.31371,78723,2.0,2.0,399.0,Windsor Park,1701 Briarcliff Boulevard
320,-97.79572,30.20196,78745,3.0,3.0,139.0,West Congress,1209 Spearson Lane
321,-97.69713,30.25977,78702,1.0,1.0,250.0,Govalle,4614 Lyons Road
322,-97.68265983,30.29757263,78723,1.0,1.0,81.0,Pecan Spings,5205 Wayborne Hill Drive
324,-97.7185,30.25981,78702,1.0,1.0,114.0,Holly,2200 East 5th Street
325,-97.73885,30.2441,78704,1.0,1.0,137.0,Travis Heights,1115 Reagan Terrace
326,-97.72652,30.21833,78741,3.0,3.0,299.0,Parker Lane,3017 Sunridge Drive
327,-97.72947,30.30958,78751,1.0,1.0,75.0,Hyde Park,4502 Avenue D
328,-97.78026,30.25923,78704,5.0,5.0,1000.0,Barton Hills,1809 Brookhaven Drive
329,-97.83023,30.3209,78746,1.0,1.0,350.0,,5 Coleridge Lane
330,-97.72175,30.25462,78702,1.0,1.0,88.0,Holly,2110 Willow Street
331,-97.76767023,30.25574602,78704,1.0,1.0,84.0,Zilker,1703 Dywer Avenue
332,-97.76774,30.25473,78704,1.0,1.0,157.0,Zilker,1407 Oxford Avenue
333,-97.7161,30.32398,78752,5.0,5.0,359.0,Highland,5906 Airport Boulevard
334,-97.71074,30.27298,78702,1.0,1.0,49.0,Rosewood,1161 Holmes Court
335,-97.74297,30.26977,78701,1.0,1.0,160.0,Downtown,Tips Building Congress Avenue
337,-97.725349,30.251677,78702,2.0,2.0,111.0,Holly,45 Lynn Street
338,-97.73792,30.24467,78704,1.0,1.0,165.0,Travis Heights,1501 Chelsea Lane
339,-97.74323,30.24465,78704,3.0,3.0,116.0,Travis Heights,1606 Alta Vista Avenue
340,-97.75431,30.25659,78704,2.0,2.0,111.0,Bouldin Creek,709 Bouldin Avenue
341,-97.74839,30.24414,78704,1.0,1.0,96.0,Travis Heights,400 Lockhart Drive
342,-97.72421,30.25344,78702,1.0,1.0,116.0,Holly,2005 Garden Street
343,-97.73169,30.2989,78705,1.0,1.0,115.0,University of Texas,3506 Tom Green Street
344,-97.72013,30.28573,78722,1.0,1.0,200.0,Upper Boggy Creek,2904 French Place
345,-97.76497,30.23074,78704,2.0,2.0,260.0,Dawson,Alpine Village 412
346,-97.74417,30.28408,78705,1.0,1.0,350.0,West Campus,2100 Nueces Street
347,-97.704,30.27498,78702,1.0,1.0,77.0,Rosewood,1187 Ridgeway Drive
348,-97.72237,30.259,78702,2.0,2.0,225.0,Holly,2000 East 4th Street
349,-97.75562,30.25084,78704,1.0,1.0,96.0,South First,609 West Elizabeth Street
350,-97.75171,30.24689,78704,1.0,1.0,116.0,South Congress,1705 Eva Street
351,-97.72655,30.33664,78757,3.0,3.0,280.0,Brentwood,1206 Brentwood Street
352,-97.70871,30.35706,78758,1.0,1.0,72.0,,1102 Plymouth Drive
353,-97.74884,30.27245,78701,1.0,1.0,149.0,Downtown,808 Rio Grande Street
354,-97.74066,30.30223,78705,1.0,1.0,63.0,University of Texas,3504 King Street
355,-97.77892,30.26228,78704,5.0,5.0,1071.0,Barton Hills,1402 Foxtail Cove
356,-97.68575,30.32983,78752,3.0,3.0,228.0,St. Johns,7600 Barcelona Cove
357,-97.72322,30.24392,78741,1.0,1.0,519.0,East Riverside,2201 South Lakeshore Boulevard
358,-97.69467,30.30474,78723,1.0,1.0,150.0,Windsor Park,Delwood Sportsplex 1815
359,-97.8045,30.15579,78748,3.0,3.0,290.0,,10324 Grizzly Oak Drive
360,-97.75536,30.24554,78704,4.0,4.0,424.0,South First,410 West Johanna Street
362,-97.73223,30.25741,78702,4.0,4.0,1450.0,East Downtown,1302 Garden Street
363,-97.70403,30.275,78702,1.0,1.0,50.0,Rosewood,1187 Ridgeway Drive
364,-97.7348,30.29418,78705,2.0,2.0,240.0,,3103 Walling Drive
365,-97.73635,30.25548,78702,3.0,3.0,400.0,East Downtown,1007 Lambie Street
366,-97.74138,30.26429,78701,3.0,3.0,362.0,Downtown,207 San Jacinto Boulevard
367,-97.74129,30.26632,78701,4.0,4.0,609.0,Downtown,219 East 5th Street
368,-97.74243,30.26492,78701,2.0,2.0,199.0,Downtown,208 East 3rd Street
369,-97.75639,30.25592,78704,1.0,1.0,75.0,Bouldin Creek,907 Ramona Street
370,-97.76043,30.32702,78731,1.0,1.0,105.0,,4611 Fairview Drive
371,-97.7183,30.27677,78702,1.0,1.0,81.0,East Downtown,2103 East 16th Street
372,-97.79961,30.21723,78745,3.0,3.0,250.0,Westgate,5509 Cork Path
373,-97.71403,30.2914,78722,1.0,1.0,100.0,Upper Boggy Creek,3804 Cherrywood Road
374,-97.72323,30.25766,78702,3.0,3.0,284.0,East Downtown,110 Adam L Chapa Sr Street
375,-97.75067,30.32006,78731,2.0,2.0,300.0,Allendale,4504 Chiappero Trail
376,-97.7384,30.31338,78756,1.0,1.0,110.0,Brentwood,Chili's 4420
377,-97.74217,30.24357,78704,1.0,1.0,111.0,Travis Heights,1701 Travis Heights Boulevard
378,-97.71672,30.27879,78702,1.0,1.0,63.0,East Downtown,1707 Chestnut Avenue
379,-97.72405,30.25635,78702,1.0,1.0,116.0,East Downtown,1910 Willow Street
380,-97.73773,30.2682,78701,4.0,4.0,992.0,Downtown,800 Neches Street
381,-97.68572,30.29379,78723,2.0,2.0,129.0,Mueller,4701 Creekwood Road
382,-97.71672,30.2525,78702,1.0,1.0,175.0,Holly,2508 Canterbury Street
383,-97.72656,30.2281,78741,1.0,1.0,234.0,Pleasant Valley,Country Club Creek Trail Avonmora Apartments
384,-97.75369,30.25974,78704,1.0,1.0,126.0,Bouldin Creek,Austin MetroBike Station Barton Springs Road
385,-97.80123,30.31498,78746,5.0,5.0,795.0,Westlake Hills,2111 Paisano Road
386,-97.83055,30.25285,78735,4.0,4.0,499.0,Barton Creek,5012 Crystal Water Drive
387,-97.74536,30.33892,78757,4.0,4.0,350.0,Allendale,6102 Nasco Drive
388,-97.72651,30.21971,78741,1.0,1.0,71.0,Parker Lane,3005 Sunridge Drive
389,-97.79337,30.24813,78704,2.0,2.0,200.0,Barton Hills,2899 Down Cove
390,-97.68213,30.32674,78752,3.0,3.0,199.0,St. Johns,7501 Brookhollow Drive
391,-97.73134,30.26602,78702,5.0,5.0,646.0,East Downtown,1004 East 7th Street
392,-97.72985,30.26468,78702,1.0,1.0,157.0,East Downtown,1216 East 6th Street
393,-97.7623,30.29012,78703,4.0,4.0,1500.0,Tarrytown,1900 Winsted Lane
394,-97.75549,30.24216,78704,2.0,2.0,133.0,South Congress,214 Fletcher Street
395,-97.72771,30.30247,78751,1.0,1.0,126.0,Hyde Park,4016 Duval Street
396,-97.75618,30.24668,78704,1.0,1.0,139.0,South First,1811 South 1st Street
397,-97.7463,30.34042,78757,1.0,1.0,91.0,Allendale,6109 Shoal Creek Boulevard
398,-97.77751,30.25039,78704,1.0,1.0,125.0,Zilker,2116 Ann Arbor Avenue
401,-97.71552,30.28602,78722,1.0,1.0,149.0,Upper Boggy Creek,1715 East 32nd Street
402,-97.76426,30.25518,78704,1.0,1.0,500.0,Zilker,1322 Lamar Square Drive
403,-97.68213,30.32674,78752,1.0,1.0,60.0,St. Johns,7501 Brookhollow Drive
404,-97.71486,30.25144,78702,3.0,3.0,285.0,Holly,2701 Canterbury Street
405,-97.7458,30.37038,78759,3.0,3.0,350.0,Balcones Civic Association,8207 Summer Side Drive
406,-97.74074,30.26491,78701,2.0,2.0,193.0,Downtown,306 1/2 East 3rd Street
407,-97.73486,30.25561,78702,2.0,2.0,314.0,East Downtown,52 Waller Street
408,-97.82398,30.18933,78748,1.0,1.0,115.0,Cherry Creek,8607 Collingwood Drive
410,-97.72981,30.27519,78702,2.0,2.0,425.0,East Downtown,910 East 15th Street
411,-97.71015,30.28054,78702,3.0,3.0,231.0,Rosewood,Platform Apartments - Building 1 2823
413,-97.8078,30.22557,78745,4.0,4.0,333.0,Westgate,6 Reese Drive
414,-97.76286,30.24713,78704,1.0,1.0,425.0,Bouldin Creek,2004 South 5th Street
415,-97.77593,30.24884,78704,1.0,1.0,99.0,Zilker,2200 Bluebonnet Lane
416,-97.72626,30.28761,78705,2.0,2.0,155.0,University of Texas,2703 Swisher Street
417,-97.75557,30.23835,78704,4.0,4.0,563.0,Mission District,H-E-B 2400
418,-97.76923,30.25177,78704,3.0,3.0,1100.0,Zilker,1606 Bauerle Avenue
419,-97.7278,30.30285,78751,2.0,2.0,168.0,Hyde Park,4101 1/2 Avenue H
420,-97.74848,30.25246,78704,2.0,2.0,235.0,South Congress,South Congress Avenue South River City
421,-97.75179,30.36539,78731,1.0,1.0,100.0,Northwest Hills,3700 Orrell Court
422,-97.98471,30.30878,78738,2.0,2.0,130.0,,5400 Cueva Drive
423,-97.7151,30.25463,78702,1.0,1.0,120.0,Holly,106 San Saba Street
424,-97.76651,30.2432,78704,2.0,2.0,123.0,Galindo,1106 Fieldcrest Drive
425,-97.80071,30.27733,78746,4.0,4.0,1650.0,Rollingwood,204 Bulian Lane
426,-97.75672,30.29035,78703,1.0,1.0,144.0,Old Enfield,2301 Harris Boulevard
427,-97.74938,30.24149,78704,1.0,1.0,450.0,Travis Heights,2100 Clifton Street
428,-97.79235,30.2774,78746,5.0,5.0,1111.0,Rollingwood,438 Brady Lane
429,-97.91709,30.37567,78734,1.0,1.0,48.0,,2508 Geronimo Trail
430,-97.77428,30.25844,78704,4.0,4.0,545.0,Travis Heights,2303 Spring Creek Drive
431,-97.75924,30.23747,78704,1.0,1.0,200.0,Dawson,Dawson Austin
432,-97.72903,30.30085,78751,2.0,2.0,165.0,Hyde Park,410 Towne Park Trail
433,-97.7509,30.24802,78704,1.0,1.0,141.0,East Downtown,107 West Monroe Street
434,-97.75019,30.23896,78704,2.0,2.0,140.0,South Congress,501 Sunset Circle
435,-97.74783,30.27094,78701,1.0,1.0,125.0,Downtown,701 1/2 Nueces Street
436,-97.77363,30.25945,78704,1.0,1.0,150.0,Barton Hills,2207 Trailside Drive
437,-97.76869,30.2551,78704,1.0,1.0,185.0,Zilker,1806 Ashby Avenue
438,-97.7448,30.24736,78704,2.0,2.0,207.0,Travis Heights,1500 East Side Drive
439,-97.77768,30.24413,78704,2.0,2.0,150.0,South Lamar,2610 Del Curto Road
440,-97.74897,30.23822,78704,1.0,1.0,68.0,Travis Heights,602 Sandringham Circle
441,-97.82364,30.23127,78749,1.0,1.0,300.0,Sunset Valley,Walmart Supercenter 5017
442,-97.75388,30.27637,78703,2.0,2.0,204.0,Old West Austin,1111 West 11th Street
443,-97.80208,30.2684,78746,4.0,4.0,528.0,Westlake Hills,1327 Wilderness Drive
444,-97.77896,30.24124,78704,2.0,2.0,100.0,South Lamar,3004 Del Curto Road
445,-97.72538,30.25275,78702,3.0,3.0,291.0,Holly,1915 Holly Street
446,-97.71687,30.26545,78702,1.0,1.0,96.0,East Downtown,2315 East 11th Street
447,-97.71776,30.26674,78702,2.0,2.0,193.0,East Downtown,2013 Hamilton Avenue
448,-97.78239,30.22092,78745,1.0,1.0,106.0,South Manchaca,4606 Hank Avenue
449,-97.76439,30.25826,78704,1.0,1.0,145.0,Zilker,905 Kinney Avenue
450,-97.74074,30.26582,78701,3.0,3.0,362.0,Downtown,Residence Inn by Marriott Austin Downtown/Convention Center 300
451,-97.7748,30.25822,78704,1.0,1.0,78.0,Barton Hills,1505 Norris Drive
452,-97.70724,30.28751,78722,1.0,1.0,63.0,Upper Boggy Creek,3800 Airport Boulevard
453,-97.74316,30.40348,78759,1.0,1.0,400.0,,Ascension Seton Northwest Hospital 11113
454,-97.77527,30.25279,78704,2.0,2.0,178.0,Barton Hills,Zilker Elementary School 1900
455,-97.74026,30.26439,78701,4.0,4.0,552.0,Downtown,ATX MetroBike Station Trinity Street
456,-97.93828,30.26291,78736,1.0,1.0,62.0,,Austin Zoo 10808
457,-97.82291,30.45732,78750,4.0,4.0,249.0,Wooten,CVS Pharmacy 11725
458,-97.77685,30.23881,78704,1.0,1.0,100.0,South Lamar,1609 Lightsey Road
459,-97.76014,30.25258,78704,3.0,3.0,642.0,Bouldin Creek,1006 Jewell Street
460,-97.71519,30.27679,78702,2.0,2.0,244.0,East Downtown,2404 East 14th Street
461,-97.73241,30.26015,78702,4.0,4.0,264.0,East Downtown,1200 East Cesar Chavez Street
463,-97.75108,30.27679,78703,2.0,2.0,650.0,Downtown,919 West 12th Street
464,-97.72878,30.25995,78702,3.0,3.0,149.0,East Downtown,1506 East 2nd Street
465,-97.79201,30.20794,78745,1.0,1.0,110.0,,6006 Mojave Drive
466,-97.76507,30.2458,78704,1.0,1.0,305.0,Bouldin Creek,2209 Perry Avenue
467,-97.80815,30.21065,78745,3.0,3.0,450.0,,2408 Berkeley Avenue
468,-97.70047,30.31271,78723,2.0,2.0,150.0,Windsor Park,5620 Nassau Drive
469,-97.72571,30.3603,78757,2.0,2.0,190.0,Wooten,2109 Lanier Drive
470,-97.88265,30.23749,78736,8.0,8.0,1980.0,,7003 Grove Crest Drive
471,-97.76546,30.22623,78704,2.0,2.0,289.0,Dawson,3811 Wilson Street
472,-97.7886,30.24679,78704,1.0,1.0,125.0,Barton Hills,2563 Bluffview Drive
473,-97.76548,30.2877,78703,2.0,2.0,329.0,Tarrytown,1506 Forest Trail
474,-97.77076,30.28793,78703,1.0,1.0,350.0,West Austin,1314 Possum Trot Street
475,-97.80746,30.23764,78735,3.0,3.0,236.0,,3210 Nancy Gale Drive
476,-97.76315,30.29287,78703,2.0,2.0,214.0,Tarrytown,2007 Mc Call Road
477,-97.91259,30.34736,78732,1.0,1.0,155.0,Steiner Ranch,12617 Calistoga Way
478,-97.73078,30.2678,78702,1.0,1.0,159.0,East Downtown,1003 East 9th Street
480,-97.75151,30.24375,78704,1.0,1.0,195.0,South Congress,Lively Middle School 201
481,-97.75081,30.26975,78703,2.0,2.0,764.0,,Irene's West Avenue
482,-97.87423,30.3466,78732,3.0,3.0,220.0,,1702 Ski Slope Drive
483,-97.69458,30.30679,78723,2.0,2.0,800.0,Windsor Park,1807 Rogge Lane
484,-97.72073,30.25408,78702,1.0,1.0,70.0,Holly,2206 Canterbury Street
485,-97.75159,30.31214,78731,1.0,1.0,80.0,Rosedale,3905 Idlewild Road
486,-97.728,30.27321,78702,1.0,1.0,80.0,East Downtown,1208 Navasota Street
487,-97.81583,30.21346,78745,1.0,1.0,150.0,,2903 Bushnell Drive
488,-97.68658,30.26816,78721,2.0,2.0,400.0,MLK & 183,1107 Ebert Avenue
489,-97.72173,30.31923,78751,1.0,1.0,70.0,North Loop,103 Nelray Boulevard
490,-97.78595,30.46288,78729,1.0,1.0,52.0,Anderson Mill,13516 Hymeadow Circle
491,-97.70816,30.27699,78702,1.0,1.0,72.0,Rosewood,2902 East 13th Street
492,-97.71169,30.28092,78702,1.0,1.0,161.0,East Downtown,1810 Miriam Avenue
493,-97.62959,30.27872,78724,3.0,3.0,121.0,,5529 Trace Creek Pass
494,-97.78969,30.23974,78704,1.0,1.0,179.0,,Barley Bean South Lamar Boulevard
497,-97.72371,30.25789,78702,3.0,3.0,975.0,Holly,1907 East 2nd Street
498,-97.7591,30.27521,78703,4.0,4.0,557.0,Old West Austin,701 Pressler Street
499,-97.75876,30.29234,78703,1.0,1.0,81.0,Old Enfield,2403 Hartford Road
500,-97.75794,30.25132,78704,2.0,2.0,425.0,Bouldin Creek,814 Jewell Street
501,-97.78635,30.2404,78704,1.0,1.0,123.0,South Lamar,3425 South Lamar Boulevard
502,-97.74168,30.24113,78704,2.0,2.0,205.0,Travis Heights,1815 Kenwood Avenue
503,-97.72914,30.20025,78744,1.0,1.0,120.0,McKinney,5611 Viewpoint Drive
504,-97.72515,30.25748,78702,2.0,2.0,104.0,East Downtown,Weather Up East Cesar Chavez Street
505,-97.75928,30.2431,78704,3.0,3.0,446.0,Hancock,607 Fletcher Street
506,-97.72275,30.27248,78702,4.0,4.0,400.0,Central East Austin,1604 New York Avenue
507,-97.72963,30.26999,78702,3.0,3.0,590.0,East Downtown,1005 Juniper Street
508,-97.71739,30.28296,78722,2.0,2.0,165.0,Upper Boggy Creek,2107 Chestnut Avenue
509,-97.78487,30.46514,78729,1.0,1.0,50.0,Anderson Mill,13302 Hymeadow Circle
510,-97.78598,30.46291,78729,6.0,6.0,385.0,Anderson Mill,13516 Hymeadow Circle
511,-97.71626,30.2514,78702,2.0,2.0,300.0,Holly,71 San Saba Street
512,-97.76604,30.21025,78745,3.0,3.0,80.0,East Congress,405 Seminole Drive
513,-97.81398,30.20274,78745,1.0,1.0,100.0,Cherry Creek,7208 Whispering Winds Drive
514,-97.7772,30.2508,78704,3.0,3.0,525.0,Zilker,2112 Ann Arbor Avenue
515,-97.73316,30.26245,78702,4.0,4.0,375.0,East Downtown,1013 East 3rd Street
516,-97.75533,30.24848,78704,4.0,4.0,5000.0,South First,1615 South 1st Street
517,-97.70499,30.278,78702,1.0,1.0,95.0,Rosewood,2949 East 14th Street
518,-97.72919,30.25956,78702,1.0,1.0,479.0,East Downtown,1501 East 2nd Street
519,-97.75049,30.3499,78731,2.0,2.0,186.0,Northwest Hills,6882 Austin Center Drive
520,-97.75171,30.24689,78704,1.0,1.0,116.0,South Congress,1705 Eva Street
521,-97.71336,30.29395,78722,2.0,2.0,152.0,Upper Boggy Creek,3905 Maplewood Avenue
522,-97.74816,30.24572,78704,2.0,2.0,200.0,Travis Heights,1710 Drake Avenue
523,-97.77765,30.25677,78704,6.0,6.0,2200.0,Meeks Bay,2406 Ridgeview Drive
524,-97.79028,30.25611,78746,1.0,1.0,102.0,Barton Hills,1707 Spyglass Drive
525,-97.71731,30.28887,78722,1.0,1.0,700.0,Upper Boggy Creek,1504 Edgewood Avenue
526,-97.77176,30.24888,78704,1.0,1.0,101.0,Zilker,2112 Oxford Avenue
527,-97.84196,30.275,78746,5.0,5.0,1200.0,Barton Creek,6109 Turtle Point Drive
528,-97.78381,30.20264,78745,2.0,2.0,332.0,West Congress,6008 Blythewood Drive
529,-97.73347,30.40668,78759,4.0,4.0,339.0,Wooten,4201 Flagstaff Drive
530,-97.73312,30.32401,78756,2.0,2.0,200.0,Brentwood,5313 Grover Avenue
531,-97.76049,30.29133,78703,2.0,2.0,175.0,Tarrytown,North Mopac Expressway Enfield
532,-97.75182,30.32904,78731,3.0,3.0,279.0,Wooten,Austin Memorial Park Cemetery 3000
533,-97.72533,30.27435,78702,1.0,1.0,85.0,East Downtown,1304 Angelina Street
535,-97.73064,30.2545,78702,1.0,1.0,120.0,East Downtown,52 Comal Street
536,-97.73963,30.26594,78701,2.0,2.0,243.0,Downtown,401 East 5th Street
537,-97.79577,30.21955,78745,3.0,3.0,400.0,Westgate,2007 Fair Oaks Drive
538,-97.72622,30.25329,78702,3.0,3.0,459.0,Holly,1901 Holly Street
539,-97.73121,30.25737,78702,1.0,1.0,101.0,East Downtown,1401 Canterbury Street
540,-97.71527,30.2638,78702,2.0,2.0,400.0,East Downtown,2400 East 8th Street
541,-97.70491,30.28088,78702,1.0,1.0,164.0,Rosewood,3004 East 18th Street
542,-97.77328,30.29061,78703,2.0,2.0,750.0,West Austin,West Austin Youth Association Norwalk Lane
543,-97.73411,30.26966,78701,1.0,1.0,175.0,Downtown,Hertz 709
544,-97.75517,30.27267,78703,1.0,1.0,129.0,Old West Austin,1106 West 6th Street
545,-97.7761,30.41738,78759,1.0,1.0,99.0,,10615 Skyflower Drive
546,-97.73584,30.22095,78741,2.0,2.0,290.0,Parker Lane,3100 Matador Drive
547,-97.82004,30.14765,78748,3.0,3.0,300.0,,11306 Lake Drive
548,-97.68213,30.32674,78752,1.0,1.0,44.0,St. Johns,7501 Brookhollow Drive
549,-97.99533,30.24647,78736,3.0,3.0,345.0,,10925 Long Branch Drive
550,-97.7417,30.24097,78704,2.0,2.0,206.0,Travis Heights,1817 Kenwood Avenue
551,-97.75026,30.2407,78704,2.0,2.0,1200.0,Travis Heights,307 East Live Oak Street
552,-97.76009,30.28301,78703,2.0,2.0,700.0,Clarksville,1623 Enfield Road
553,-97.70708,30.26012,78702,1.0,1.0,105.0,Govalle,3001 Garwood Street
554,-97.68296,30.32621,78752,3.0,3.0,299.0,St. Johns,7401 Brookhollow Drive
555,-97.84348,30.27689,78746,4.0,4.0,1500.0,Barton Creek,2317 Cypress Point East
556,-97.76542,30.23176,78704,1.0,1.0,200.0,Galindo,517 Lightsey Road
557,-97.8051,30.27685,78746,4.0,4.0,2500.0,Westlake Hills,Butterfly Christian Preschool 3525
558,-97.719,30.32969,78752,3.0,3.0,500.0,Highland,409 Wilmes Drive
559,-97.74842,30.2366,78704,3.0,3.0,400.0,St. Edwards,Valero 628
560,-97.73988,30.24417,78704,2.0,2.0,197.0,Travis Heights,1103 Reagan Terrace
561,-97.75795,30.23963,78704,1.0,1.0,92.0,Dawson,2418 Wilson Street
562,-97.76119,30.27896,78703,2.0,2.0,475.0,Old West Austin,1616 West 9½ Street
563,-97.71223,30.27395,78702,1.0,1.0,85.0,Rosewood,2667 New York Drive
564,-97.72693,30.27314,78702,2.0,2.0,600.0,East Downtown,1204 San Bernard Street
565,-97.73363,30.25805,78702,3.0,3.0,1000.0,East Downtown,Sánchez Elementary School 73
566,-97.74856,30.24326,78704,3.0,3.0,2000.0,Travis Heights,1924 Newning Avenue
567,-97.74508,30.22915,78704,1.0,1.0,200.0,St. Edwards,Texas Commission on Environmental Quality Saint Edward's Circle
568,-97.7745,30.31374,78731,1.0,1.0,193.0,,3808 West 35th Street
569,-97.74806,30.26833,78701,2.0,2.0,289.0,Downtown,United States Courthouse 501
570,-97.83985,30.20566,78749,3.0,3.0,750.0,Cherry Creek,7901 Croftwood Drive
571,-97.72514,30.2444,78741,2.0,2.0,490.0,East Riverside,1115 Town Creek Drive
572,-97.75655,30.2685,78703,1.0,1.0,150.0,Old West Austin,1100 West Cesar Chavez Street
573,-97.7188,30.26384,78702,2.0,2.0,350.0,,905 Mill Street
574,-97.77975,30.21234,78745,1.0,1.0,39.0,South Manchaca,701 Emerald Wood Drive
576,-97.65883,30.289,78724,3.0,3.0,400.0,,6411 Garden View Drive
577,-97.71374,30.26255,78702,2.0,2.0,275.0,East Downtown,746 Northwestern Avenue
579,-97.71991,30.25466,78702,2.0,2.0,475.0,Holly,2214 Willow Street
580,-97.76114,30.2828,78703,4.0,4.0,1100.0,Clarksville,1700 Palma Plaza
581,-97.69352,30.27854,78721,2.0,2.0,900.0,MLK & 183,1206 Deloney Street
582,-97.71564,30.24197,78741,1.0,1.0,267.0,Pleasant Valley,Country Club Creek Trail The Crossing
584,-97.68091,30.36894,78753,2.0,2.0,900.0,,10519 North Interstate 35
585,-97.83795,30.20379,78749,1.0,1.0,135.0,Cherry Creek,3508 Eskew Drive
586,-97.81201,30.22962,78745,1.0,1.0,189.0,Sunset Valley,3300 Jones Road
587,-97.73308,30.34465,78757,2.0,2.0,179.0,Crestview,1913 Cullen Avenue
588,-97.77153,30.29936,78703,4.0,4.0,2000.0,Tarrytown,3009 Bowman Avenue
589,-97.75062,30.29743,78703,1.0,1.0,132.0,Bryker Woods,2715 Wooldridge Drive
590,-97.76921,30.24693,78704,2.0,2.0,174.0,South Lamar,1404 West Oltorf Street
591,-97.7115,30.33782,78752,1.0,1.0,200.0,Highland,401 West Croslin Street
592,-97.77454,30.23349,78704,1.0,1.0,333.0,South Lamar,Banister Heights Austin
593,-97.75909,30.23721,78704,2.0,2.0,150.0,Dawson,2613 Wilson Street
594,-97.79121,30.25727,78746,2.0,2.0,875.0,Barton Hills,One Barton Place Condominiums Austin
595,-97.96431,30.35747,78734,1.0,1.0,72.0,,123 Golf Crest Cove
597,-97.73512,30.26977,78701,1.0,1.0,850.0,Downtown,Waller Creek Center 625
598,-97.75844,30.2769,78703,1.0,1.0,109.0,West Austin,1408 West 9th Street
599,-97.83412,30.20562,78745,3.0,3.0,150.0,Cherry Creek,3413 Galesburg Drive
600,-97.68553,30.27886,78721,3.0,3.0,93.0,MLK & 183,4701 East 12th Street
601,-97.73585,30.3533,78757,1.0,1.0,67.0,Allendale,Read School 2608
602,-97.74607,30.32117,78731,2.0,2.0,233.0,Allendale,4702 Strass Drive
603,-97.85955,30.34837,78733,2.0,2.0,195.0,,2704 Mecca Road
604,-97.75266,30.25786,78704,1.0,1.0,135.0,South First,601 South 3rd Street
605,-97.67575,30.4406,78728,4.0,4.0,550.0,,14611 Wells Port Drive
606,-97.71433,30.25847,78702,2.0,2.0,400.0,Holly,501 Pedernales Street
607,-97.74159,30.2646,78701,4.0,4.0,481.0,Downtown,Hyatt Place 211
608,-97.77812,30.24749,78704,2.0,2.0,349.0,Zilker,2008 Montclaire Street
609,-97.64083,30.35674,78754,1.0,1.0,50.0,,11128 Reliance Creek Drive
610,-97.98699,30.34219,78738,1.0,1.0,95.0,,31 Waterfall Drive
611,-97.74313,30.27863,78701,1.0,1.0,400.0,Downtown,408 West 15th Street
612,-97.74235,30.2422,78704,3.0,3.0,400.0,Travis Heights,1805 Travis Heights Boulevard
613,-97.73819,30.29925,78705,4.0,4.0,1200.0,University of Texas,3302 Hemphill Park
614,-97.75729,30.38498,78759,1.0,1.0,40.0,Balcones Civic Association,4509 Mountain Path Drive
615,-97.72889,30.30501,78751,1.0,1.0,350.0,Hyde Park,4205 Avenue F
616,-97.81954,30.16629,78748,3.0,3.0,125.0,Hollow At Slaughter Creek,The Hollow Lake Loop Saddlewood Estates
617,-97.75405,30.24202,78704,1.0,1.0,120.0,South Congress,2203 Euclid Avenue
618,-97.71781,30.26517,78702,1.0,1.0,95.0,East Downtown,2301 East 11th Street
619,-97.69524,30.22504,78741,1.0,1.0,40.0,Montopolis,1602 Frontier Valley Drive
620,-97.81342,30.2081,78745,3.0,3.0,207.0,,6706 Blarwood Drive
621,-97.78802,30.23478,78704,2.0,2.0,300.0,South Lamar,Ann Richards School for Young Women Leaders 2206
622,-97.77338,30.28984,78703,2.0,2.0,375.0,West Austin,West Austin Youth Association Norwalk Lane
623,-97.77869,30.24243,78704,2.0,2.0,165.0,South Lamar,3000 Del Curto Road
624,-97.99589,30.21682,78737,4.0,4.0,2500.0,,215 Cole Street
625,-97.78039,30.29597,78703,4.0,4.0,470.0,Tarrytown,1603 Raleigh Avenue
626,-97.73348,30.29654,78705,1.0,1.0,200.0,University of Texas,304 East 33rd Street
627,-97.78152,30.24271,78704,2.0,2.0,125.0,South Lamar,Chittamani Buddhist Center Menchaca Road
628,-97.74416,30.2926,78705,1.0,1.0,120.0,West Campus,2707 Rio Grande Street
629,-97.7552,30.26906,78703,1.0,1.0,550.0,Downtown,300 North Lamar Boulevard
630,-97.7169,30.26391,78702,2.0,2.0,175.0,East Downtown,2300 East 9th Street
631,-97.76899,30.23485,78704,2.0,2.0,160.0,Galindo,3206 South 5th Street
632,-97.7217,30.32943,78752,2.0,2.0,250.0,Highland,616 Denson Drive
633,-97.73507,30.29669,78705,1.0,1.0,300.0,University of Texas,201 East 33rd Street
634,-97.71194,30.2313,78741,1.0,1.0,91.0,Pleasant Valley,5305 Summer Circle
635,-97.7171,30.26652,78702,2.0,2.0,250.0,East Downtown,1199 Swenson Avenue
636,-97.73882,30.25798,78701,1.0,1.0,1000.0,Rainey Street,69 Rainey Street
637,-97.74081,30.2576,78701,1.0,1.0,1000.0,Rainey Street,Trail of Tejano Legends Lady Bird Lake Hike and Bike Trail
638,-97.72224,30.28435,78722,1.0,1.0,500.0,Upper Boggy Creek,Facilities Complex Building 1 1309
639,-97.66244,30.38645,78753,1.0,1.0,159.0,Copperfield,12007 Trotwood Drive
640,-97.91117,30.24655,78736,1.0,1.0,150.0,Oak Hill,9403 Claxton Drive
641,-97.71765,30.34068,78757,1.0,1.0,300.0,Crestview,Crestview Commons North Lamar Boulevard
642,-97.77955,30.21881,78745,3.0,3.0,420.0,South Manchaca,4762 Vinson Drive
643,-97.6925,30.30949,78723,3.0,3.0,500.0,Windsor Park,5603 Delwood Drive
644,-97.71573,30.28457,78722,1.0,1.0,225.0,Upper Boggy Creek,Sandstone Apartments 2501
645,-97.7131,30.27734,78702,3.0,3.0,650.0,East Downtown,1405 Cedar Avenue
646,-97.72577,30.3086,78751,2.0,2.0,775.0,Hyde Park,4515 Avenue G
648,-97.70205,30.29727,78723,3.0,3.0,450.0,Mueller,2001 McBee Street
649,-97.7716,30.26041,78704,2.0,2.0,450.0,Barton Hills,1112 Azie Morton Road
650,-97.70351,30.27797,78702,1.0,1.0,100.0,Rosewood,3010 East 14th Street
651,-97.72146,30.27856,78702,1.0,1.0,81.0,,1803 East 18th Street
652,-97.70161,30.26502,78702,1.0,1.0,100.0,Govalle,3208 Neal Street
653,-97.68729,30.31681,78723,1.0,1.0,200.0,Windsor Park,6408 Kenilworth Drive
654,-97.74621,30.29676,78705,1.0,1.0,115.0,University of Texas,2842 Pearl Street
655,-97.7597,30.29431,78703,1.0,1.0,175.0,Tarrytown,2423 Winsted Lane
656,-97.77617,30.28341,78703,2.0,2.0,400.0,West Austin,H-E-B 715
657,-97.73021,30.3113,78751,1.0,1.0,200.0,Hyde Park,4521 Avenue B
658,-97.71759,30.27605,78702,3.0,3.0,1028.0,East Downtown,2107 East 14th Street
659,-97.72579,30.28619,78705,1.0,1.0,187.0,University of Texas,Frank Denius Fields North Interstate 35
660,-97.72406,30.30513,78751,2.0,2.0,200.0,Hancock,602 East 43rd Street
661,-97.75642,30.25558,78704,1.0,1.0,150.0,Bouldin Creek,904 Christopher Street
662,-97.78295,30.36524,78731,1.0,1.0,225.0,Bull Creek,6702 Ladera Norte
663,-97.73383,30.24093,78741,2.0,2.0,165.0,East Riverside,1510 Oak Heights Drive
664,-97.76242,30.2123,78745,1.0,1.0,110.0,East Congress,4603 Old Castle Road
665,-97.71539,30.335,78752,2.0,2.0,180.0,,505 Swanee Drive
666,-97.68231575,30.29735819,78723,1.0,1.0,79.0,Pecan Spings,3017 Pecan Springs Road
667,-97.73206,30.24041,78741,1.0,1.0,300.0,East Riverside,1520 Parker Lane
668,-97.75498,30.24755,78704,2.0,2.0,227.0,South First,514 West Annie Street
669,-97.77725,30.24528,78704,2.0,2.0,83.0,South Lamar,2525 South Lamar Boulevard
670,-97.78444,30.23488,78704,1.0,1.0,82.0,,3811 Menchaca Road
671,-97.81764,30.24327,78735,1.0,1.0,70.0,Barton Creek,4502 Gaines Park Loop
672,-97.70025,30.29966,78723,1.0,1.0,120.0,Mueller,4627 Berkman Drive
673,-97.71955,30.30751,78751,3.0,3.0,499.0,Hancock,4605 Caswell Avenue
675,-97.72718,30.26191,78702,2.0,2.0,57.0,East Cesar Chavez,Don Vito Alessio Robles Plaza Saltillo
676,-97.85871,30.34875,78733,1.0,1.0,119.0,,2707 Mecca Road
677,-97.92098,30.37581,78734,4.0,4.0,5000.0,,2309 Little Beaver Trail
678,-97.73553,30.35497,78757,2.0,2.0,70.0,Allendale,7703 Northcross Drive
679,-97.71791,30.26462,78702,4.0,4.0,516.0,East Downtown,1006 Prospect Avenue
680,-97.73674,30.29418,78705,2.0,2.0,95.0,University of Texas,106 East 30th Street
681,-97.76868,30.23583,78704,1.0,1.0,161.0,Galindo,3104 South 5th Street
682,-97.78553,30.24432,78704,3.0,3.0,246.0,Barton Hills,2374 Westrock Drive
683,-97.68466,30.26723,78721,2.0,2.0,129.0,MLK & 183,5303 Prock Lane
684,-97.7409,30.37652,78759,2.0,2.0,150.0,Balcones Civic Association,8711 Camelia Lane
685,-97.71361,30.28623,78722,2.0,2.0,500.0,Upper Boggy Creek,3210 Larry Lane
686,-97.752,30.30269,78703,1.0,1.0,120.0,Bryker Woods,1514 West 31st Street
687,-97.73071,30.35908,78757,1.0,1.0,75.0,Wooten,2416 1/2 Ashdale Drive
688,-97.78511,30.24558,78704,2.0,2.0,269.0,Barton Hills,3098 Westhill Drive
689,-97.78511,30.24558,78704,2.0,2.0,170.0,Barton Hills,3098 Westhill Drive
690,-97.88902,30.18931,78739,1.0,1.0,59.0,St. Johns,10822 Redmond Road
691,-97.75546,30.27407,78703,1.0,1.0,150.0,Old West Austin,1114 West 7th Street
692,-97.75779,30.27393,78703,1.0,1.0,165.0,Old West Austin,604 Harthan Street
693,-97.71477,30.2746,78702,1.0,1.0,53.0,East Downtown,2400 East 12th Street
694,-97.77633,30.25536,78704,4.0,4.0,1643.0,Zilker,1723 Norris Drive
695,-97.7417,30.24097,78704,2.0,2.0,203.0,Travis Heights,1817 Kenwood Avenue
696,-97.75609,30.25442,78704,3.0,3.0,500.0,Bouldin Creek,813 Columbus Street
697,-97.72323,30.25766,78702,4.0,4.0,586.0,East Downtown,110 Adam L Chapa Sr Street
698,-97.76131,30.27404,78703,2.0,2.0,389.0,Old West Austin,1413 West 6th Street
699,-97.7135,30.25772,78702,3.0,3.0,593.0,Holly,2605 East 5th Street
700,-97.74278,30.26609,78701,4.0,4.0,581.0,Downtown,Frost Bank Tower 419
701,-97.77286,30.25976,78704,1.0,1.0,149.0,Barton Hills,2204 Trailside Drive
702,-97.70453,30.29445,78723,3.0,3.0,200.0,Mueller,2024 Zach Scott Street
703,-97.77453,30.25912,78704,2.0,2.0,202.0,Barton Hills,2305 Trailside Drive
704,-97.88849,30.18942,78739,1.0,1.0,59.0,St. Johns,10763 Pinkey Lane
705,-97.76008,30.24583,78704,2.0,2.0,164.0,Bouldin Creek,2009 South 3rd Street
706,-97.77603,30.25893,78704,2.0,2.0,205.0,Barton Hills,2401 Spring Creek Drive
707,-97.69555,30.22552,78741,1.0,1.0,60.0,Montopolis,Santos Street Montopolis
708,-97.75918,30.2589,78704,1.0,1.0,200.0,Zilker,608 South Lamar Boulevard
709,-97.73674,30.3249,78756,4.0,4.0,411.0,Brentwood,1410 North Loop Boulevard
710,-97.75205,30.30769,78703,1.0,1.0,48.0,Bryker Woods,1701 West 35th Street
711,-97.75944,30.25386,78704,3.0,3.0,275.0,Bouldin Creek,1003 West Gibson Street
712,-97.74085,30.26669,78701,2.0,2.0,250.0,Downtown,Wax Myrtle's Club & Pool 506
713,-97.7422,30.2685,78701,2.0,2.0,191.0,Downtown,615 Congress Avenue
714,-97.704865,30.30773,78723,1.0,1.0,109.0,Windsor Park,1313 East 52nd Street
715,-97.81175,30.19758,78745,3.0,3.0,296.0,Cherry Creek,2109 Trede Drive
716,-97.74316,30.26887,78701,3.0,3.0,357.0,Downtown,One American Center West 6th Street
717,-97.75117,30.2461,78704,3.0,3.0,600.0,South Congress,107 West Annie Street
718,-97.78722,30.23806,78704,2.0,2.0,250.0,South Lamar,2200 Panther Trail
719,-97.75028,30.24855,78704,1.0,1.0,164.0,East Downtown,Yard Dog 1510
720,-97.77393,30.23888,78704,1.0,1.0,105.0,South Lamar,3005 Pin Oak Court
721,-97.75682,30.27452,78703,1.0,1.0,124.0,Old West Austin,1209 West 8th Street
722,-97.76852,30.26136,78704,3.0,3.0,3200.0,Zilker,903 Lund Street
723,-97.74169,30.27014,78701,2.0,2.0,180.0,West Campus,807 Congress Avenue
724,-97.7852,30.2454,78704,2.0,2.0,155.0,Barton Hills,3102 Westhill Drive
725,-97.88943,30.4165,78732,2.0,2.0,149.0,,13905 Skyline Drive
726,-97.74116,30.23777,78704,1.0,1.0,59.0,,1222 Algarita Avenue
727,-97.81782,30.24017,78735,1.0,1.0,89.0,,La Quinta Inn & Suites 4424
728,-97.74051,30.31291,78756,5.0,5.0,349.0,Allendale,4315 Bellvue Avenue
729,-97.75019,30.24202,78704,1.0,1.0,94.0,Travis Heights,2106 Brackenridge Street
730,-97.75479,30.27322,78703,1.0,1.0,226.0,Hancock,610 Baylor Street
732,-97.7718,30.28875,78703,2.0,2.0,160.0,Downtown,1315 Norwalk Lane
733,-97.74289,30.26921,78701,2.0,2.0,198.0,Downtown,The Contemporary Austin - Jones Center West 7th Street
734,-97.74007,30.24545,78704,2.0,2.0,198.0,Travis Heights,1013 Bonham Terrace
735,-97.72413,30.25131,78702,1.0,1.0,130.0,Holly,45 Anthony Street
736,-97.94346,30.18493,78737,2.0,2.0,135.0,,8939 Bear Creek Drive
737,-97.85819,30.34685,78733,1.0,1.0,129.0,,2604 De Soto Drive
738,-97.72366,30.26934,78702,1.0,1.0,53.0,East Downtown,1500 Rosewood Avenue
739,-97.73281,30.24538,78741,3.0,3.0,600.0,East Riverside,1511 Inglewood Street
742,-97.77286,30.25976,78704,2.0,2.0,181.0,Barton Hills,2204 Trailside Drive
743,-97.75274,30.40539,78759,1.0,1.0,55.0,,Great Hills rental office Morado Circle
744,-97.77612,30.25431,78704,2.0,2.0,115.0,Zilker,2200 Rundell Place
745,-97.71602,30.31031,78751,2.0,2.0,165.0,Hancock,4903 Red River Street
746,-97.81898,30.20956,78745,1.0,1.0,77.0,,2910 West William Cannon Drive
747,-97.71821,30.26613,78702,2.0,2.0,115.0,East Downtown,2011 Tillotson Avenue
749,-97.7354,30.24884,78741,1.0,1.0,500.0,East Riverside,234A I 35;US 290
750,-97.75284,30.24585,78704,1.0,1.0,151.0,South Congress,204 West Mary Street
751,-97.74219,30.26857,78701,2.0,2.0,232.0,Downtown,Aloft Austin Downtown 109
752,-97.74281,30.26818,78701,2.0,2.0,206.0,Downtown,601 1/2 Congress Avenue
753,-97.74087,30.26702,78701,2.0,2.0,591.0,Downtown,219 East 6th Street
754,-97.75655,30.2525,78704,2.0,2.0,425.0,Bouldin Creek,805 West Gibson Street
755,-97.7054,30.28055,78702,3.0,3.0,150.0,Rosewood,1704 Harvey Street
756,-97.79472,30.22916,78745,2.0,2.0,96.0,Westgate,4508 Frontier Trail
757,-97.74289,30.26784,78701,2.0,2.0,567.0,Downtown,522 Congress Avenue
758,-97.74815,30.23866,78704,2.0,2.0,214.0,Travis Heights,2212 East Side Drive
759,-97.75142,30.27722,78703,3.0,3.0,478.0,Clarksville,1200 North Lamar Boulevard
760,-97.76131,30.24323,78704,1.0,1.0,65.0,Galindo,2312 South 3rd Street
761,-97.7605,30.28365,78703,1.0,1.0,150.0,Clarksville,1705 Enfield Road
762,-97.72616,30.25881,78702,3.0,3.0,429.0,East Downtown,205 Chalmers Avenue
763,-97.74013,30.24409,78704,2.0,2.0,200.0,Travis Heights,1101 Reagan Terrace
764,-97.73679,30.33356,78757,1.0,1.0,98.0,Brentwood,1900 West Koenig Lane
765,-97.75932,30.23469,78704,2.0,2.0,175.0,Dawson,207 El Paso Street
766,-97.77451,30.25979,78704,1.0,1.0,250.0,Barton Hills,2304 Trailside Drive
767,-97.75787,30.2492,78704,2.0,2.0,150.0,Bouldin Creek,1615 South 3rd Street
768,-97.71279,30.30429,78722,1.0,1.0,65.0,Mueller,4606 Elwood Road
769,-97.81252,30.22915,78745,1.0,1.0,86.0,Sunset Valley,1048 Sunflower Trail
770,-97.81306,30.19707,78745,5.0,5.0,482.0,South Austin,2202 Lear Lane
771,-97.94311,30.15793,78737,1.0,1.0,169.0,,Hays County Texas
773,-97.73395,30.24417,78741,1.0,1.0,179.0,,1304 Summit Street
774,-97.74375,30.41766,78759,1.0,1.0,200.0,,Windsor Nursing and Rehabilitation Center of Duval 5301
776,-97.72892,30.25669,78702,2.0,2.0,999.0,,1604 Canterbury Street
777,-97.69793,30.25937,78702,1.0,1.0,120.0,Govalle,4612 Milburn Lane
778,-97.75855,30.29221,78703,1.0,1.0,88.0,Old Enfield,2403 Hartford Road
779,-97.71604,30.23117,78741,1.0,1.0,119.0,Pleasant Valley,5004 East Riverside Drive
780,-97.76915,30.25346,78704,5.0,5.0,1800.0,Zilker,1705 Collier Street
781,-97.69171,30.27875,78721,2.0,2.0,250.0,MLK & 183,1205 Perez Street
782,-97.81906,30.19574,78745,1.0,1.0,75.0,Cherry Creek,2503 Roehampton Drive
783,-97.71233,30.29864,78722,1.0,1.0,126.0,Upper Boggy Creek,1403 Crestwood Road
784,-97.75425,30.24907,78704,2.0,2.0,2000.0,Westlake Hills,408 West Monroe Street
785,-97.77625,30.24837,78704,2.0,2.0,187.0,Hancock,2301 Bluebonnet Lane
787,-97.74318,30.29835,78705,2.0,2.0,75.0,University of Texas,3011 Washington Square
788,-97.73066,30.29852,78705,1.0,1.0,72.0,Hancock,3506 Duval Street
789,-97.77327,30.26007,78704,2.0,2.0,500.0,,1201 Hollow Creek Drive
790,-97.79328,30.27064,78746,1.0,1.0,350.0,Westlake Hills,Bee Caves Road Rollingwood
791,-97.75986,30.28466,78703,1.0,1.0,50.0,Clarksville,1512 Woodlawn Boulevard
792,-97.74652,30.27368,78701,2.0,2.0,148.0,Downtown,Blackwell Thurman Criminal Justice Center Nueces Street
793,-97.74722,30.2748,78701,1.0,1.0,127.0,Downtown,604 West 11th Street
794,-97.74973,30.31425,78731,2.0,2.0,129.0,Rosedale,4110 Ridgelea Drive
796,-97.73468,30.2561,78702,3.0,3.0,500.0,East Downtown,58 Waller Street
797,-97.77971,30.23708,78704,2.0,2.0,150.0,St. Johns,3407 Aldwyche Drive
798,-97.77212,30.2554,78704,2.0,2.0,159.0,Zilker,1514 Bluebonnet Lane
799,-97.77791,30.29366,78703,2.0,2.0,139.0,Tarrytown,3306 Enfield Road
800,-97.80315,30.35971,78730,3.0,3.0,495.0,Long Canyon,6700 West Courtyard Drive
801,-97.73215,30.29805,78705,2.0,2.0,231.0,University of Texas,311 East 35th Street
802,-97.74229,30.26635,78701,1.0,1.0,193.0,Downtown,Frost Bank Tower 419
803,-97.74162,30.26455,78701,4.0,4.0,424.0,Downtown,Hyatt Place 211
804,-97.70569,30.27876,78702,2.0,2.0,100.0,,1409 Sanchez Street
805,-97.73451,30.25541,78702,2.0,2.0,299.0,East Downtown,1200 Haskell Street
806,-97.72234,30.30479,78751,1.0,1.0,174.0,Hancock,705 Keasbey Street
807,-97.73888,30.34473,78757,1.0,1.0,79.0,Allendale,6807 Daugherty Street
808,-97.71831,30.31003,78751,1.0,1.0,264.0,Hancock,4810 Caswell Avenue
809,-97.76949,30.26149,78704,2.0,2.0,157.0,Barton Hills,905 Azie Morton Road
810,-97.77774,30.22291,78745,3.0,3.0,132.0,South Manchaca,905 Saint Elmo Road West
811,-97.69485,30.23007,78741,2.0,2.0,150.0,Montopolis,1110 Vasquez Street
812,-97.75151,30.25587,78704,4.0,4.0,2100.0,South First,Texas School for the Deaf 1102
813,-97.79052,30.2126,78745,3.0,3.0,410.0,Zilker,1406 Radam Circle
814,-97.77252,30.27822,78703,5.0,5.0,776.0,West Austin,2404 Lake Austin Boulevard
815,-97.74201,30.24536,78704,2.0,2.0,193.0,Hancock,1507 Alta Vista Avenue
816,-97.9381,30.23514,78736,2.0,2.0,97.0,,9136 Rock Way Drive
817,-97.70966,30.35498,78758,3.0,3.0,310.0,Zilker,8433 Jamestown Drive
818,-97.75154,30.2408,78704,3.0,3.0,375.0,Travis Heights,2201 Post Road
819,-97.775856,30.261789,78704,1.0,1.0,95.0,Barton Hills,1240 Barton Hills Drive
820,-97.75446,30.25261,78704,2.0,2.0,600.0,South First,1114 South 1st Street
821,-97.75928,30.44697,78729,3.0,3.0,213.0,,12932 Modena Trail
822,-97.7474,30.25261,78704,2.0,2.0,400.0,South Congress,200 Academy Drive
823,-97.75867,30.37433,78759,2.0,2.0,300.0,Balcones Civic Association,Adirondack Austin
824,-97.70137,30.29892,78723,3.0,3.0,200.0,Mueller,2112 Robert Browning Street
825,-97.7634,30.23899,78704,3.0,3.0,252.0,Galindo,2613 South 3rd Street
826,-97.70312,30.26508,78702,2.0,2.0,135.0,Govalle,1104 1/2 Tillery Street
827,-97.77932,30.25655,78704,2.0,2.0,156.0,Barton Hills,1806 Westridge Drive
828,-97.77298,30.25979,78704,2.0,2.0,125.0,Barton Hills,2206 Trailside Drive
829,-97.79177,30.22165,78745,1.0,1.0,150.0,South Manchaca,4904 Lansing Drive
830,-97.71685,30.23755,78741,1.0,1.0,30.0,Pleasant Valley,4612 Elmont Drive
831,-97.76376,30.28534,78703,1.0,1.0,47.0,Clarksville,North Mopac Expressway Enfield
832,-97.76403,30.27615,78703,1.0,1.0,650.0,Old West Austin,1624 West 6th Street
833,-97.80978,30.18544,78748,1.0,1.0,50.0,,1509 West Dittmar Road
835,-97.76411,30.23571,78704,3.0,3.0,750.0,Galindo,605 Terrell Hill Drive
836,-97.75439,30.22392,78704,1.0,1.0,99.0,St. Edwards,St. Edwards Austin
838,-97.852844,30.339581,78733,1.0,1.0,200.0,,2216 River Hills Road
839,-97.74591,30.27912,78701,1.0,1.0,129.0,Downtown,St. Martin's Ev. Lutheran Church 606
840,-97.7801,30.23998,78704,2.0,2.0,189.0,South Lamar,3107 Glen Ora Street
842,-97.73169,30.25805,78702,1.0,1.0,135.0,East Downtown,1306 Canterbury Street
843,-97.74274,30.26786,78701,3.0,3.0,258.0,Downtown,Bank of America 515
844,-97.77035,30.26192,78704,2.0,2.0,300.0,Zilker,1001 Azie Morton Road
845,-97.77479,30.22099,78745,6.0,6.0,268.0,South Manchaca,4408 South 2nd Street
846,-97.74065,30.2671,78701,3.0,3.0,249.0,Downtown,510 San Jacinto Boulevard
847,-97.74287,30.26912,78701,2.0,2.0,180.0,Downtown,The Contemporary Austin - Jones Center West 7th Street
848,-97.74265,30.26702,78701,2.0,2.0,198.0,Downtown,Til death due us part mural East 5th Street
849,-97.74245,30.26676,78701,2.0,2.0,567.0,Downtown,Frost Bank Tower East 5th Street
850,-97.76319,30.2799,78703,1.0,1.0,235.0,Hancock,1712 West 10th Street
851,-97.68543,30.32094,78723,2.0,2.0,88.0,Windsor Park,6921 Enterprise Court
852,-97.77183,30.25683,78704,2.0,2.0,549.0,Zilker,2007 Melridge Place
853,-97.75847,30.28365,78703,1.0,1.0,500.0,Clarksville,1507 Pease Road
855,-97.79326,30.25708,78746,1.0,1.0,250.0,Barton Hills,Landmark Barton Creek Apartments Austin
856,-97.76126,30.26413,78704,1.0,1.0,5000.0,Zilker,Chuy's Restaurant Home Office 1623
857,-97.7898,30.25941,78746,1.0,1.0,400.0,Barton Hills,Woods on Barton Skyway Austin
858,-97.80978,30.21308,78745,3.0,3.0,150.0,,2520 Berkett Drive
859,-97.77304,30.26063,78704,1.0,1.0,90.0,Barton Hills,1128 Hollow Creek Drive
860,-97.76899,30.20988,78745,1.0,1.0,44.0,East Congress,4913 Manchester Circle
861,-97.75384,30.25953,78704,2.0,2.0,400.0,,Armstrong Community Music School Barton Springs Road
862,-97.73234,30.27085,78702,1.0,1.0,175.0,East Downtown,1129 North Interstate 35
864,-97.75875,30.27364,78703,3.0,3.0,1000.0,Old West Austin,1214 West 6th Street
865,-97.78975,30.25668,78746,1.0,1.0,400.0,Barton Hills,Barton Hollow Condominiums Austin
866,-97.74615,30.28305,78705,1.0,1.0,350.0,Downtown,Crest at Pearl 706
868,-97.77946,30.15932,78744,1.0,1.0,62.0,,9314 Brandts Woods Street
869,-97.76188,30.26426,78704,1.0,1.0,1499.0,Zilker,Casa de Luz 1701
870,-97.71752,30.32886,78752,2.0,2.0,200.0,Highland,6303 Chesterfield Avenue
871,-97.74704,30.25311,78704,3.0,3.0,700.0,South Congress,200 Academy Drive
872,-97.74906,30.25311,78704,3.0,3.0,500.0,South Congress,Texas School for the Deaf 1102
873,-97.75364,30.3074,78703,1.0,1.0,50.0,Rosedale,1714 West 34th Street
874,-97.66887,30.25883,78725,3.0,3.0,159.0,,7220 Bay City Bend
875,-97.68145,30.31173,78723,2.0,2.0,106.0,Windsor Park,2415 Towbridge Circle
876,-97.78804,30.24042,78704,1.0,1.0,225.0,South Lamar,Easy Tiger South Lamar Boulevard
877,-97.69553,30.42803,78727,1.0,1.0,39.0,Lamplight Village,13219 Winwick Way
878,-97.72779,30.32014,78751,2.0,2.0,250.0,North Loop,607 East North Loop Boulevard
879,-97.73246,30.2971,78705,1.0,1.0,80.0,University of Texas,309 East 34th Street
880,-97.71166,30.28079,78702,2.0,2.0,155.0,East Downtown,1808 Miriam Avenue
881,-97.72367,30.34601,78757,3.0,3.0,200.0,Crestview,1305 Aggie Lane
882,-97.82885,30.18354,78748,1.0,1.0,47.0,Cherry Creek,2604 Barkwood Drive
883,-97.74887,30.25755,78704,1.0,1.0,400.0,South First,One Texas Center 505
884,-97.74168,30.24113,78704,2.0,2.0,196.0,Travis Heights,1815 Kenwood Avenue
885,-97.82971,30.1844,78748,1.0,1.0,47.0,Cherry Creek,9115 Marsh Drive
886,-97.74759,30.31125,78756,1.0,1.0,117.0,Rosedale,4003 Sinclair Avenue
887,-97.85239,30.1419,78739,2.0,2.0,400.0,,12804 Bismark Drive
888,-97.71461,30.27759,78702,3.0,3.0,295.0,East Downtown,1410 Singleton Avenue
889,-97.70703,30.29909,78723,2.0,2.0,400.0,Mueller,SYNC at Mueller 4646
890,-97.7718,30.23061,78704,2.0,2.0,175.0,Galindo,Galindo Elementary School 3800
891,-97.77218,30.28335,78703,1.0,1.0,150.0,West Austin,2402 West 9th Street
892,-97.79748,30.22561,78745,3.0,3.0,275.0,Westgate,4900 Broken Bow Pass
893,-97.69949,30.2924,78723,3.0,3.0,299.0,Mueller,Robert Mueller Municipal Airport Control Tower Berkman Drive
894,-97.58637,30.26288,78724,1.0,1.0,56.0,,6099 Ronee Leah Drive
895,-97.82749,30.18363,78748,1.0,1.0,47.0,Cherry Creek,2506 Toulouse Drive
896,-97.78555,30.26239,78746,2.0,2.0,1000.0,Barton Hills,1209 Spyglass Drive
897,-97.71901,30.27674,78702,3.0,3.0,220.0,East Downtown,2005 East 16th Street
898,-97.74532,30.25492,78704,1.0,1.0,75.0,,uShip 205
899,-97.76741,30.25949,78704,1.0,1.0,195.0,Zilker,1812 Treadwell Street
900,-97.74086,30.23816,78704,2.0,2.0,250.0,Travis Heights,1222 Algarita Avenue
901,-97.7621,30.25978,78704,3.0,3.0,550.0,,700 Jessie Street
902,-97.80814,30.20118,78745,2.0,2.0,196.0,Cherry Creek,2005 Mimosa Drive
903,-97.747,30.25494,78704,2.0,2.0,125.0,South Congress,South River City Austin
904,-97.74624,30.25355,78704,1.0,1.0,125.0,South Congress,South River City Austin
905,-97.73722,30.4149,78759,2.0,2.0,79.0,Angus Valley,4807 Duval Road
906,-97.68241,30.44667,78728,4.0,4.0,389.0,Padre Island,2406 Wood Chase Trail
907,-97.73347,30.30787,78751,1.0,1.0,160.0,Hyde Park,4213 Avenue A
908,-97.74473,30.23605,78704,1.0,1.0,122.0,Travis Heights,1100 East Oltorf Street
909,-97.71063,30.27652,78702,2.0,2.0,629.0,East Downtown,Boggy Creek Greenbelt Trail Glenwood
910,-97.74629,30.25371,78704,1.0,1.0,125.0,South Congress,South River City Austin
911,-97.74663,30.25387,78704,1.0,1.0,110.0,South Congress,South River City Austin
912,-97.78285,30.25782,78704,1.0,1.0,159.0,Barton Hills,1906 Glencliff Drive
913,-97.68459,30.44656,78728,3.0,3.0,325.0,Padre Island,2602 Water Well Lane
914,-97.77023,30.28351,78703,5.0,5.0,1500.0,West Austin,2206 West 10th Street
915,-97.734,30.26224,78702,3.0,3.0,250.0,East Downtown,208 San Marcos Street
916,-97.74681,30.25382,78704,7.0,7.0,1500.0,South Congress,South River City Austin
917,-97.75602,30.23661,78704,1.0,1.0,170.0,Dawson,2602 South Congress Avenue
919,-97.75496,30.24682,78704,3.0,3.0,262.0,South First,413 West Annie Street
920,-97.74845,30.33689,78757,3.0,3.0,395.0,Allendale,5900 Shoal Creek Boulevard
921,-97.73309,30.25513,78702,2.0,2.0,300.0,East Downtown,1304 Haskell Street
922,-97.79033,30.23889,78704,1.0,1.0,120.0,Barton Hills,3833 South Lamar Boulevard
923,-97.76557,30.2616,78704,1.0,1.0,156.0,Zilker,614 Cliff Drive
924,-97.77286,30.25976,78704,1.0,1.0,141.0,Barton Hills,2204 Trailside Drive
925,-97.77968,30.23325,78704,1.0,1.0,689.0,South Lamar,1510 Rockdale Circle
926,-97.66491,30.35872,78754,1.0,1.0,93.0,Pioneer Hill,Whitaker Drive Pioneer Hill Reserve
927,-97.9173,30.31618,78738,1.0,1.0,45.0,,2317 Resaca Boulevard
928,-97.83632,30.29113,78746,1.0,1.0,240.0,Barton Creek,907 Galahad Drive
929,-97.77898,30.23387,78704,3.0,3.0,410.0,South Lamar,1600 Southgate Circle
930,-97.73147,30.2572,78702,4.0,4.0,696.0,East Downtown,72 Navasota Street
931,-97.73347,30.33809,78757,2.0,2.0,511.0,Brentwood,6507 Goodnight Lane
932,-97.79039,30.49395,78717,3.0,3.0,105.0,,Austin Williamson County
933,-97.70155,30.30011,78723,4.0,4.0,299.0,Mueller,4700 Page Street
934,-97.72103,30.28746,78722,1.0,1.0,126.0,Upper Boggy Creek,3007 Dancy Street
935,-97.98502,30.37585,78734,4.0,4.0,343.0,,111 Lakeway Extension
936,-97.75514,30.27428,78703,1.0,1.0,150.0,Old West Austin,1111 West 9th Street
937,-97.73568,30.25531,78702,3.0,3.0,396.0,East Downtown,1103 Lambie Street
938,-97.75846,30.27783,78703,3.0,3.0,1000.0,,1411 West 10th Street
940,-97.72936,30.31176,78751,2.0,2.0,185.0,Hyde Park,300 West 46th Street
941,-97.77989,30.23272,78704,1.0,1.0,90.0,South Lamar,1508 Southport Drive
942,-97.70926,30.33115,78752,4.0,4.0,314.0,Highland,St. Francis School Brenda Drive
943,-97.72038,30.27313,78702,3.0,3.0,214.0,East Downtown,1802 New York Avenue
944,-97.75663,30.24956,78704,1.0,1.0,70.0,South First,1604 South 2nd Street
945,-97.77815,30.26139,78704,3.0,3.0,480.0,,2624 Deerfoot Trail
946,-97.7287,30.26145,78702,1.0,1.0,95.0,East Downtown,1409 East 4th Street
947,-97.71788,30.22998,78741,1.0,1.0,30.0,Pleasant Valley,2102 Kirksey Drive
948,-97.7655,30.25221,78704,1.0,1.0,450.0,Zilker,1424 Collier Street
949,-97.74791,30.24975,78704,3.0,3.0,643.0,Hancock,200 The Circle
951,-97.76673,30.23359,78704,1.0,1.0,125.0,Dawson,Galindo Austin
952,-97.78069,30.32694,78746,1.0,1.0,90.0,Westlake Hills,3823 Westlake Drive
953,-97.73835,30.2467,78704,1.0,1.0,196.0,Travis Heights,1310 Kenwood Avenue
954,-97.93214,30.30083,78738,1.0,1.0,150.0,,Beautybush Drive Bee Cave
955,-97.75748,30.30857,78703,1.0,1.0,60.0,Rosedale,North Mopac Expressway Military Heights
956,-97.74878,30.25284,78704,1.0,1.0,130.0,South Congress,Texas School for the Deaf 1102
957,-97.69297,30.22498,78741,4.0,4.0,189.0,Montopolis,1416 Anise Drive
958,-97.71655,30.26299,78702,1.0,1.0,50.0,East Downtown,2215 East 8th Street
959,-97.7701,30.21457,78745,3.0,3.0,263.0,West Congress,4714 South Congress Avenue
962,-97.78577,30.24543,78704,4.0,4.0,1350.0,Barton Hills,3234 Westhill Drive
963,-97.72866,30.3466,78757,1.0,1.0,125.0,,7388 Yates Avenue
965,-97.77511,30.23871,78704,3.0,3.0,200.0,South Lamar,3012 Pin Oak Court
966,-97.74415,30.22499,78741,2.0,2.0,80.0,Parker Lane,1700 Timber Ridge Road
967,-97.71446,30.25622,78702,1.0,1.0,120.0,Holly,2521 East 4th Street
968,-97.73865,30.24465,78704,3.0,3.0,314.0,Travis Heights,1122 Reagan Terrace
969,-97.67078,30.28885,78723,2.0,2.0,99.0,Pecan Spings,4904 Hilldale Drive
971,-97.71903,30.28587,78722,2.0,2.0,250.0,Upper Boggy Creek,3000 Breeze Terrace
972,-97.75402,30.27725,78703,1.0,1.0,61.0,,1105 Blanco Street
973,-97.74683,30.33547,78757,1.0,1.0,130.0,Allendale,2702 Allandale Road
974,-97.71551,30.27596,78702,4.0,4.0,499.0,East Downtown,1304 Maple Avenue
975,-97.74064,30.24263,78704,2.0,2.0,166.0,Travis Heights,1107 Woodland Avenue
976,-97.74897,30.23604,78704,5.0,5.0,549.0,St. Edwards,2405 East Side Drive
977,-97.74487,30.31478,78756,3.0,3.0,347.0,Rosedale,4312 Ramsey Avenue
978,-97.91703,30.23182,78737,1.0,1.0,65.0,,8800 Scarlet Circle
979,-97.74675,30.25569,78704,13.0,13.0,1575.0,South Congress,Crescent East Riverside Drive
980,-97.88367,30.20842,78749,3.0,3.0,545.0,Circle C,9302 Le Conte Cove
981,-97.67696,30.27334,78721,2.0,2.0,200.0,MLK & 183,5610 Hudson Street
982,-97.7657,30.29432,78703,1.0,1.0,129.0,,2408 Keating Lane
983,-97.73901,30.25682,78701,1.0,1.0,600.0,Rainey Street,Skyhouse Austin Rainey Street
984,-97.8032,30.18064,78748,2.0,2.0,190.0,,819 Great Britain Boulevard
986,-97.74096,30.24313,78704,2.0,2.0,175.0,Travis Heights,1014 Woodland Avenue
987,-97.71699,30.26518,78702,1.0,1.0,50.0,East Downtown,2313 East 11th Street
988,-97.71773,30.2773,78702,1.0,1.0,94.0,East Downtown,2112 East 16th Street
989,-97.77242,30.28954,78703,2.0,2.0,700.0,West Austin,1404 Norwalk Lane
990,-97.78148,30.36274,78731,4.0,4.0,449.0,Bull Creek,5005 Smokey Valley
991,-97.76221,30.27511,78703,1.0,1.0,131.0,Blackshear-Prospect Hill,1510 West 6th Street
992,-97.75232,30.25796,78704,2.0,2.0,350.0,South First,Town Lake Center 721
993,-97.75021,30.249,78704,3.0,3.0,1195.0,South Congress,Austin Bicycle Station West Elizabeth Street
994,-97.74745,30.24503,78704,1.0,1.0,204.0,Travis Heights,407 East Annie Street
995,-97.69966,30.30633,78723,4.0,4.0,500.0,Windsor Park,5200 Avon Place
996,-97.73172,30.26244,78702,3.0,3.0,314.0,East Downtown,1201 East 4th Street
997,-97.7621,30.25048,78704,2.0,2.0,332.0,Bouldin Creek,1700 South 6th Street
998,-97.98654,30.21296,78737,1.0,1.0,188.0,,23 Laurel Hill Street
999,-97.71816,30.29214,78722,2.0,2.0,170.0,Upper Boggy Creek,3504 Werner Avenue
1000,-97.73077,30.26803,78702,1.0,1.0,400.0,East Downtown,1004 East 9th Street
1001,-97.73909,30.30047,78705,2.0,2.0,500.0,University of Texas,508 West 34th Street
1002,-97.7187,30.28093,78722,3.0,3.0,174.0,East Austin,2107 East 20th Street
1003,-97.82327,30.23133,78749,2.0,2.0,150.0,Sunset Valley,Walmart Supercenter 5017
1004,-97.7136,30.37097,78758,1.0,1.0,60.0,,1804 West Rundberg Lane
1005,-97.81008,30.46024,78750,1.0,1.0,200.0,Anderson Mill,12211 Saber Trail
1006,-97.80963,30.45868,78750,1.0,1.0,175.0,Anderson Mill,12207 Waterside Trail
1007,-97.75879,30.27659,78703,3.0,3.0,3200.0,Old West Austin,1409 West 9th Street
1008,-97.71607,30.26706,78702,3.0,3.0,200.0,East Downtown,1112 Harvard Street
1009,-97.71802,30.27713,78702,2.0,2.0,500.0,East Downtown,2108 East 16th Street
1010,-97.73416,30.25752,78702,1.0,1.0,119.0,East Downtown,Sánchez Elementary School 73
1011,-97.72514,30.25513,78702,1.0,1.0,92.0,Holly,1905 Canterbury Street
1012,-97.71242,30.27723,78702,3.0,3.0,900.0,East Downtown,1403 Walnut Avenue
1013,-97.75897,30.23963,78704,2.0,2.0,196.0,Dawson,2509 Durwood Street
1014,-97.74939,30.25045,78704,2.0,2.0,40.0,South Congress,Hotel San José 1316
1016,-97.72687,30.30997,78751,1.0,1.0,45.0,Hyde Park,4524 Avenue F
1017,-97.68528,30.29325,78723,2.0,2.0,356.0,Mueller,3006 Shady Park Drive
1018,-97.74346,30.24951,78704,1.0,1.0,85.0,Travis Heights,506 Pecan Grove Road
1019,-97.76127,30.23453,78704,1.0,1.0,107.0,Dawson,3000 Fontana Drive
1020,-97.66393,30.2285,78742,1.0,1.0,120.0,,9501 Sherman Road
1021,-97.70103,30.27685,78702,3.0,3.0,450.0,Rosewood,3114 East 12th Street
1022,-97.75279,30.23474,78704,1.0,1.0,700.0,St. Edwards,2611 Carnarvon Lane
1023,-97.70391,30.26308,78702,1.0,1.0,67.0,Govalle,900 Tillery Street
1024,-97.72336,30.33512,78757,4.0,4.0,280.0,Hancock,908 Brentwood Street
1025,-97.72735,30.25295,78702,2.0,2.0,75.0,,1802 Haskell Street
1026,-97.77364,30.26169,78704,2.0,2.0,550.0,,1221 Barton Hills Drive
1027,-97.68571,30.30083,78723,3.0,3.0,140.0,Windsor Park,5300 Wellington Drive
1028,-97.7474,30.24755,78704,2.0,2.0,110.0,Travis Heights,300 East Monroe Street
1029,-97.78423,30.2039,78745,1.0,1.0,30.0,,New Hope Wesleyan Church Turtle Creek Boulevard
1030,-97.77809,30.1873,78745,3.0,3.0,325.0,East Congress,401 Chaparral Road
1031,-97.78476,30.24259,78704,3.0,3.0,350.0,,Advance Auto Parts Westoak Drive
1032,-97.74861,30.34239,78757,3.0,3.0,274.0,,6205 Treadwell Boulevard
1033,-97.71433,30.28875,78722,3.0,3.0,700.0,Upper Boggy Creek,3316 Hemlock Avenue
1034,-97.75484,30.22765,78704,1.0,1.0,200.0,St. Edwards,St. Edward's University 3001
1035,-97.72513,30.28717,78705,2.0,2.0,145.0,St. Edwards,2804 North Interstate 35
1036,-97.72714,30.27322,78702,7.0,7.0,1553.0,East Downtown,1207 East 13th Street
1038,-97.81457,30.18627,78745,1.0,1.0,100.0,,8529 Steamline Circle
1039,-97.73543,30.26632,78701,1.0,1.0,900.0,Downtown,714 East 6th Street
1040,-97.75468,30.24605,78704,1.0,1.0,400.0,South First,401 West Mary Street
1041,-97.67553,30.30673,78723,6.0,6.0,384.0,Pecan Spings,6102 Cherrylawn Circle
1042,-97.75246,30.32808,78731,3.0,3.0,900.0,Allendale,5008 Placid Place
1043,-97.73786,30.1997,78744,1.0,1.0,53.0,McKinney,5005 Maufrais Lane
1044,-97.73343,30.26052,78702,4.0,4.0,999.0,East Downtown,125 Medina Street
1045,-97.7843,30.23929,78704,1.0,1.0,51.0,South Lamar,3406 Menchaca Road
1046,-97.70887,30.33844,78752,3.0,3.0,460.0,Highland,102 West Crestland Drive
1047,-97.72651,30.30146,78751,3.0,3.0,420.0,Hancock,4004 Peck Avenue
1048,-97.76695,30.22981,78704,1.0,1.0,275.0,Dawson,Galindo Austin
1049,-97.74199,30.26643,78701,2.0,2.0,227.0,Downtown,412 Brazos Street
1050,-97.74247,30.26837,78701,2.0,2.0,181.0,Downtown,Littlefield Building 106
1051,-97.75245,30.24842,78704,3.0,3.0,950.0,St. Edwards,211 West Monroe Street
1052,-97.76877,30.24995,78704,1.0,1.0,245.0,Zilker,1509 Hether Street
1053,-97.76033,30.25061,78704,2.0,2.0,250.0,Bouldin Creek,Becker Elementary School 906
1054,-97.7015,30.30799,78723,2.0,2.0,165.0,Windsor Park,1413 Broadmoor Drive
1055,-97.74686,30.25506,78704,2.0,2.0,799.0,South Congress,Congress Square II South Congress Avenue
1056,-97.78863,30.25882,78746,1.0,1.0,129.0,Barton Hills,2904 Barton Skyway
1057,-97.72568,30.30958,78751,1.0,1.0,56.0,Hyde Park,4528 Avenue G
1058,-97.72122,30.2217,78741,2.0,2.0,250.0,Pleasant Valley,5001 East Oltorf Street
1059,-97.75464,30.26925,78703,2.0,2.0,999.0,Old West Austin,317 North Lamar Boulevard
1060,-97.78645,30.46482,78729,3.0,3.0,177.0,Anderson Mill,13208 Hymeadow Circle
1061,-97.77611,30.26225,78704,3.0,3.0,2000.0,Barton Hills,2607 Trailside Drive
1062,-97.74082,30.26838,78701,2.0,2.0,268.0,Downtown,Southwest Tower 211
1063,-97.7429,30.2664,78701,2.0,2.0,203.0,Downtown,Frost Bank Tower 419
1064,-97.74247,30.26678,78701,2.0,2.0,184.0,Downtown,Frost Bank Tower East 5th Street
1065,-97.72383,30.26735,78702,3.0,3.0,325.0,East Downtown,1604 East 11th Street
1066,-97.73087,30.25863,78702,4.0,4.0,150.0,East Downtown,1314 Willow Street
1067,-97.74348,30.25356,78704,1.0,1.0,64.0,Travis Heights,400 East Riverside Drive
1068,-97.72663,30.25701,78702,3.0,3.0,176.0,East Downtown,1702 Willow Street
1069,-97.72343,30.28512,78722,3.0,3.0,415.0,,Facilities Complex Building 3 1207
1070,-97.756,30.27965,78703,1.0,1.0,185.0,Clarksville,1206 Lorrain Street
1073,-97.73958,30.2393,78704,3.0,3.0,425.0,Travis Heights,1304 Mariposa Drive
1075,-97.7072,30.28013,78702,3.0,3.0,450.0,Rosewood,1703 Clifford Avenue
1076,-97.71599,30.28751,78722,3.0,3.0,800.0,Upper Boggy Creek,3209 Cherrywood Road
1077,-97.76731,30.25365,78704,3.0,3.0,451.0,Zilker,1507 Kinney Avenue
1078,-97.82867,30.21248,78745,1.0,1.0,95.0,,3405 West William Cannon Drive
1079,-97.70115,30.31224,78723,1.0,1.0,49.0,Windsor Park,1315 Ridgemont Drive
1080,-97.75824,30.27804,78703,4.0,4.0,1400.0,Old West Austin,1408 West 10th Street
1081,-97.7416,30.29296,78705,1.0,1.0,195.0,University of Texas,2718 Guadalupe Street
1082,-97.79316,30.21926,78745,2.0,2.0,700.0,South Manchaca,1802 Jentsch Court
1083,-97.79916,30.45988,78750,2.0,2.0,170.0,Anderson Mill,10507 Mellow Meadows
1084,-97.71742,30.28148,78722,1.0,1.0,44.0,Upper Boggy Creek,2001 Chestnut Avenue
1085,-97.74044,30.39522,78759,1.0,1.0,163.0,,Stonelake Boulevard Gateway
1086,-97.71059,30.23557,78741,3.0,3.0,215.0,Pleasant Valley,Riverside Golf Course 1020
1087,-97.749,30.24583,78704,1.0,1.0,129.0,South Congress,206 East Annie Street
1088,-97.71402,30.2801,78702,1.0,1.0,226.0,East Downtown,1805 Cedar Avenue
1089,-97.7731,30.25849,78704,1.0,1.0,290.0,Barton Hills,1304 Azie Morton Road
1090,-97.73582,30.32966,78756,1.0,1.0,150.0,Brentwood,5608 Jim Hogg Avenue
1091,-97.77818,30.2497,78704,2.0,2.0,165.0,Zilker,2104 De Verne Street
1092,-97.68194,30.2572,78721,2.0,2.0,600.0,,South Annex Arthur Stiles Road
1093,-97.70703,30.26286,78702,2.0,2.0,106.0,Govalle,2900 Castro Street
1094,-97.75208,30.25759,78704,2.0,2.0,950.0,South First,620 South 1st Street
1095,-97.81211,30.20162,78745,2.0,2.0,110.0,Cherry Creek,7208 Aldea Drive
1096,-97.75073,30.39746,78759,2.0,2.0,200.0,,Great Hills Park & Ride Jollyville Road
1097,-97.73227,30.23983,78741,4.0,4.0,400.0,East Riverside,1602 Parker Lane
1098,-97.65235,30.37971,78754,1.0,1.0,180.0,Copperfield,12037 Dessau Road
1099,-97.75086,30.24004,78704,3.0,3.0,159.0,Greater South River City,2201 Post Road
1100,-97.74292,30.26703,78701,2.0,2.0,326.0,Greater South River City,103 East 5th Street
1101,-97.76059,30.24503,78704,3.0,3.0,500.0,South First,717 West Live Oak Street
1102,-97.78356,30.2459,78704,1.0,1.0,400.0,Barton Hills,2804 Westhill Drive
1103,-97.91864,30.23128,78737,1.0,1.0,65.0,,8900 Butler Circle
1104,-97.78444,30.23832,78704,2.0,2.0,210.0,South Lamar,3622 Menchaca Road
1105,-97.78532,30.23484,78704,2.0,2.0,131.0,South Lamar,3810 Menchaca Road
1106,-97.74561,30.22092,78741,2.0,2.0,75.0,Parker Lane,1619 Woodward Street
1107,-97.71393,30.27984,78702,1.0,1.0,200.0,East Downtown,1801 Cedar Avenue
1108,-97.76569,30.25507,78704,1.0,1.0,400.0,Zilker,1213 Kinney Avenue
1109,-97.74004,30.26431,78701,4.0,4.0,509.0,Downtown,Austin Convention Center 500
1110,-97.89249,30.41613,78732,3.0,3.0,295.0,,14098 Lakeview Drive
1111,-97.77563,30.22201,78745,2.0,2.0,400.0,South Manchaca,715 West Saint Elmo Road
1112,-97.74378,30.29201,78705,1.0,1.0,375.0,West Campus,2703 Rio Grande Street
1113,-97.72996,30.27458,78702,2.0,2.0,133.0,East Downtown,906 East 14th Street
1114,-97.74511,30.25482,78704,1.0,1.0,1200.0,,uShip 205
1115,-97.75601,30.30548,78703,5.0,5.0,1200.0,Bryker Woods,3207 Oakmont Boulevard
1116,-97.73905,30.30124,78705,1.0,1.0,225.0,University of Texas,3423 Guadalupe Street
1117,-97.71907,30.27433,78702,2.0,2.0,150.0,Rosewood,1206 Poquito Street
1118,-97.75068,30.26944,78701,2.0,2.0,299.0,Downtown,Fifth & West Residence 501
1119,-97.73069,30.26142,78702,2.0,2.0,1000.0,East Downtown,204 Attayac Street
1120,-97.70229,30.27799,78702,3.0,3.0,239.0,Rosewood,3103 East 14th Street
1121,-97.78026,30.2764,78746,3.0,3.0,850.0,Rollingwood,5 Inwood Circle
1122,-97.71228,30.29175,78722,1.0,1.0,200.0,Upper Boggy Creek,3811 Half Penny Road
1123,-97.73551,30.27065,78701,2.0,2.0,500.0,Downtown,Doyle House Red River Street
1124,-97.73369,30.23721,78741,3.0,3.0,285.0,East Riverside,1815 Parker Lane
1125,-97.74386,30.31153,78756,1.0,1.0,175.0,Rosedale,4111 Burnet Road
1126,-97.68605,30.30581,78723,4.0,4.0,689.0,Windsor Park,2402 Trafalgar Drive
1127,-97.76668,30.25447,78704,1.0,1.0,149.0,Zilker,1405 Kinney Avenue
1129,-97.71591,30.27674,78702,1.0,1.0,295.0,East Downtown,2306 East 14th Street
1130,-97.75891,30.25305,78704,2.0,2.0,490.0,Bouldin Creek,1305 South 5th Street
1131,-97.80192,30.22157,78745,4.0,4.0,550.0,Westgate,5308 Buffalo Pass
1132,-97.72591,30.2682,78702,4.0,4.0,618.0,East Downtown,1402 East 11th Street
1133,-97.73916,30.2975,78705,1.0,1.0,150.0,University of Texas,3104 Hemphill Park
1134,-97.7122,30.33896,78752,1.0,1.0,75.0,Highland,500 West Croslin Street
1135,-97.72352,30.27468,78702,1.0,1.0,375.0,East Downtown,1504 East 13th Street
1136,-97.69841,30.26491,78702,3.0,3.0,450.0,Govalle,3604 Govalle Avenue
1137,-97.74912,30.35742,78731,2.0,2.0,100.0,Northwest Hills,7407 Shadow Hill Drive
1138,-97.71456,30.27209,78702,1.0,1.0,144.0,Rosewood,Rosewood Recreation Center Pleasant Valley Road
1139,-97.77286,30.25976,78704,1.0,1.0,130.0,Barton Hills,2204 Trailside Drive
1141,-97.728,30.4189,78727,1.0,1.0,75.0,,4503 Brown Bark Place
1142,-97.75468,30.24304,78704,1.0,1.0,179.0,South Congress,2112 Newton Street
1143,-97.7466,30.28649,78705,2.0,2.0,375.0,West Campus,2210 Pearl Street
1144,-97.75785,30.24408,78704,1.0,1.0,152.0,South First,2209 South 1st Street
1145,-97.72393,30.30312,78751,1.0,1.0,65.0,Hancock,704 Park Boulevard
1146,-97.74811,30.2862,78705,3.0,3.0,300.0,West Campus,2204 San Gabriel Street
1148,-97.70446,30.26736,78702,1.0,1.0,600.0,Govalle,1114 Linden Street
1149,-97.74362,30.29167,78705,1.0,1.0,250.0,West Campus,2707 Rio Grande Street
1150,-97.80487,30.22244,78745,1.0,1.0,100.0,Westgate,5300 Indio Cove
1151,-97.69921,30.31212,78723,1.0,1.0,75.0,Windsor Park,1412 Ridgemont Drive
1152,-97.72817,30.23312,78741,1.0,1.0,199.0,East Riverside,1907 Willow Creek Drive
1153,-97.7385,30.33321,78756,1.0,1.0,150.0,Brentwood,1904 Ullrich Avenue
1154,-97.75648,30.27577,78703,1.0,1.0,288.0,Old West Austin,1208 West 9th Street
1155,-97.78298,30.24597,78704,1.0,1.0,130.0,,2306 Barton Village Circle
1156,-97.72625,30.27055,78702,1.0,1.0,150.0,East Downtown,1172 San Bernard Street
1157,-97.68922,30.30901,78723,1.0,1.0,200.0,Windsor Park,2002 Delwood Court
1158,-97.71107,30.29252,78722,1.0,1.0,89.0,Upper Boggy Creek,1715 East 40th Street
1159,-97.68093,30.26974,78721,1.0,1.0,115.0,MLK & 183,5502 Ledesma Road
1161,-97.7485,30.28967,78705,1.0,1.0,150.0,West Campus,1010 West 25th Street
1162,-97.77492,30.22315,78745,1.0,1.0,250.0,South Manchaca,4319 James Casey Street
1163,-97.78865,30.25761,78746,1.0,1.0,450.0,Barton Hills,Woods on Barton Skyway Austin
1164,-97.75842,30.27904,78703,1.0,1.0,74.0,Old West Austin,1100 Elm Street
1165,-97.78397,30.24138,78704,1.0,1.0,98.0,South Lamar,3005 South Lamar Boulevard
1166,-97.75216,30.31387,78731,3.0,3.0,315.0,Rosedale,Manifest Lane The Grove
1167,-97.73398,30.43761,78727,1.0,1.0,150.0,,13401 Legendary Drive
1168,-97.76326,30.23229,78704,1.0,1.0,88.0,Dawson,408 South Park Drive
1169,-97.75619,30.27373,78703,1.0,1.0,325.0,Old West Austin,617 Blanco Street
1170,-97.77365,30.29477,78703,6.0,6.0,1700.0,Tarrytown,3004 Cherry Lane
1171,-97.73324,30.24252,78741,10.0,10.0,399.0,East Riverside,1606 Elmhurst Drive
1172,-97.72464,30.28663,78722,1.0,1.0,85.0,University of Texas,North Interstate 35 University Park
1173,-97.76072,30.27776,78703,1.0,1.0,90.0,,1518 West 9th Street
1174,-97.7235,30.3376,78757,2.0,2.0,500.0,Brentwood,1103 Justin Lane
1175,-97.70885,30.27448,78702,1.0,1.0,100.0,Rosewood,1190 1/2 Hargrave Street
1176,-97.72308,30.36053,78757,1.0,1.0,200.0,Wooten,8218 Renton Drive
1177,-97.79145,30.25771,78746,1.0,1.0,250.0,,Landmark Barton Creek Apartments Austin
1178,-97.75179,30.25563,78704,2.0,2.0,400.0,South First,700 South 1st Street
1179,-97.68286,30.27723,78721,2.0,2.0,645.0,MLK & 183,1171 Nickols Avenue
1180,-97.72389,30.24987,78702,1.0,1.0,78.0,Holly,2106 Jesse E Segovia Street
1181,-97.67582,30.28257,78721,1.0,1.0,55.0,MLK & 183,1817 Webberville Road
1182,-97.71554,30.26457,78702,1.0,1.0,450.0,East Downtown,2404 East 9th Street
1183,-97.6764,30.28036,78721,1.0,1.0,42.0,MLK & 183,1727 Bunche Road
1184,-97.72659,30.29205,78705,1.0,1.0,250.0,Hancock,3212 Red River Street
1185,-97.75189,30.30717,78703,1.0,1.0,47.0,Bryker Woods,3427 Jefferson Street
1186,-97.79578,30.25705,78746,2.0,2.0,125.0,Barton Hills,Barton Creek Landing Austin
1188,-97.71712,30.27699,78702,1.0,1.0,179.0,East Downtown,Chestnut Splash Pad East 16th Street
1189,-97.84982,30.3001,78746,2.0,2.0,300.0,Barton Creek,709 Furlong Drive
1190,-97.74106,30.2285,78741,1.0,1.0,35.0,Parker Lane,2700 Little Valley Cove
1191,-97.71378,30.33856,78752,1.0,1.0,90.0,Highland,598 West Odell Street
1192,-97.74542,30.29126,78705,1.0,1.0,100.0,West Campus,2604 Salado Street
1193,-97.72731,30.24401,78741,2.0,2.0,313.0,East Riverside,South Shore District Two 1330
1194,-97.74664,30.25302,78704,1.0,1.0,250.0,South Congress,South River City Austin
1195,-97.73351,30.26578,78702,1.0,1.0,150.0,East Downtown,601 Brushy Street
1196,-97.88041,30.32868,78733,1.0,1.0,150.0,,10200 Birdlip Circle
1198,-97.81668,30.21091,78745,1.0,1.0,95.0,Circle C Ranch,6719 Lancret Hill Drive
1199,-97.7398,30.30499,78751,2.0,2.0,400.0,Rosedale,Gables Central Park West 38th Street
1200,-97.71831,30.28146,78722,3.0,3.0,145.0,Montopolis,2200 East 20th Street
1201,-97.73318,30.24856,78741,1.0,1.0,300.0,,Lady Bird Lake Hike and Bike Trail - Boardwalk Sunnydale
1202,-97.89452,30.18654,78739,4.0,4.0,1099.0,Circle C,6603 Needham Lane
1203,-97.73157,30.30923,78751,1.0,1.0,249.0,Hyde Park,Avenue B Grocery 4403
1204,-97.73074,30.2472,78741,1.0,1.0,350.0,East Riverside,Lady Bird Lake Hike and Bike Trail - Boardwalk Sunnydale
1205,-97.79381,30.13875,78747,1.0,1.0,450.0,Greater South River City,10915 Crown Colony Drive
1206,-97.7439,30.28343,78705,1.0,1.0,150.0,,1909 Nueces Street
1207,-97.74712,30.23617,78704,3.0,3.0,349.0,St. Edwards,905 East Oltorf Street
1208,-97.92159,30.32754,78732,4.0,4.0,572.0,Steiner Ranch,12503 River Bend
1209,-97.73225,30.2608,78702,1.0,1.0,350.0,East Downtown,1108 East 2nd Street
1210,-97.82356,30.17313,78748,1.0,1.0,22.0,,Exxon West Slaughter Lane
1211,-97.76592,30.28518,78703,3.0,3.0,600.0,West Austin,1306 Winsted Lane
1212,-97.71782,30.27217,78702,2.0,2.0,207.0,Rosewood,1180 Alamo Street
1213,-97.72465,30.25179,78702,1.0,1.0,150.0,Holly,2009 Haskell Street
1214,-97.77196,30.26161,78704,1.0,1.0,150.0,Zilker,1030 1/2 Barton Hills Drive
1215,-97.68404,30.47757,78728,2.0,2.0,350.0,,The District on La Frontera office 2811
1216,-97.76552,30.25626,78704,2.0,2.0,154.0,,Evergreen Heights Austin
1217,-97.73279,30.29599,78705,2.0,2.0,300.0,University of Texas,403 East 33rd Street
1218,-97.78157,30.2212,78745,1.0,1.0,120.0,South Manchaca,4601 Hank Avenue
1219,-97.71555,30.25417,78702,2.0,2.0,116.0,Holly,2514 East Cesar Chavez Street
1220,-97.74554,30.29381,78705,1.0,1.0,300.0,West Campus,2810 Salado Street
1221,-97.74692,30.25301,78704,2.0,2.0,500.0,South Congress,200 Academy Drive
1222,-97.70298,30.25534,78702,1.0,1.0,300.0,Govalle,605 Vermont Road
1223,-97.74658,30.25366,78704,1.0,1.0,300.0,South Congress,South River City Austin
1224,-97.68787,30.27589,78721,2.0,2.0,443.0,MLK & 183,4705 Louis Avenue
1225,-97.72289,30.30635,78751,1.0,1.0,200.0,Hancock,611 East 45th Street
1226,-97.85813,30.22718,78749,1.0,1.0,49.0,Oak Hill,5615 Reynolds Road
1228,-97.73002,30.27451,78702,3.0,3.0,650.0,East Downtown,904 East 14th Street
1229,-97.73177,30.31808,78756,2.0,2.0,350.0,Brentwood,805 Capitol Court
1230,-97.74512,30.34618,78757,2.0,2.0,300.0,Allendale,6701 Shoal Creek Boulevard
1231,-97.71075,30.27711,78702,2.0,2.0,50.0,East Downtown,2819 East 14th Street
1232,-97.77281,30.2882,78703,3.0,3.0,1200.0,,1305 Exposition Boulevard
1233,-97.64616,30.32969,78754,1.0,1.0,100.0,,9298 East US Highway 290
1234,-97.75382,30.24399,78704,1.0,1.0,150.0,South Congress,2020 Condominiums Crockett Street
1235,-97.76914,30.23382,78704,3.0,3.0,850.0,Galindo,900 Cardinal Lane
1236,-97.77942,30.25232,78704,4.0,4.0,1250.0,,2302 Fortune Drive
1237,-97.75752,30.30196,78703,3.0,3.0,750.0,Bryker Woods,1807 Mohle Drive
1238,-97.74847,30.28948,78705,5.0,5.0,799.0,West Campus,1006 West 25th Street
1239,-97.74803,30.28582,78705,2.0,2.0,499.0,West Campus,2200 San Gabriel Street
1240,-97.76983,30.20961,78745,1.0,1.0,34.0,,5003 Wasson Road
1241,-97.75328,30.24364,78704,3.0,3.0,600.0,South Congress,2020 Condominiums Crockett Street
1242,-97.68761,30.29681,78723,1.0,1.0,80.0,Mueller,5005 Manor Road
1243,-97.72344,30.30114,78751,3.0,3.0,800.0,Hancock,Commodore Perry Estate 4100
1244,-97.76533,30.25328,78704,1.0,1.0,500.0,Zilker,1500 South Lamar Boulevard
1245,-97.73404,30.29344,78705,2.0,2.0,230.0,University of Texas,3103 Tom Green Street
1246,-97.68454,30.3004,78723,3.0,3.0,399.0,Pecan Spings,5308 Overbrook Drive
1247,-97.73358,30.25994,78702,1.0,1.0,425.0,East Downtown,Austin Public Library - Terrazas Branch 1105
1248,-97.77223,30.21986,78745,1.0,1.0,400.0,West Congress,411 West Saint Elmo Road
1249,-97.72389,30.25235,78702,1.0,1.0,123.0,Holly,2015 Holly Street
1251,-97.68302,30.31468,78723,1.0,1.0,50.0,Windsor Park,2202 Bristol Drive
1252,-97.74653,30.29277,78705,2.0,2.0,40.0,West Campus,2704 San Pedro Street
1253,-97.76351,30.2511,78704,1.0,1.0,250.0,South Lamar,1509 South Lamar Boulevard
1254,-97.71478,30.35617,78758,1.0,1.0,115.0,Wooten,8301 Research Boulevard
1255,-97.76967,30.28321,78703,1.0,1.0,300.0,West Austin,2202 West 10th Street
1257,-97.73127,30.24771,78741,1.0,1.0,141.0,East Riverside,Lady Bird Lake Hike and Bike Trail - Boardwalk Sunnydale
1258,-97.73858,30.24411,78704,2.0,2.0,189.0,Barton Hills,1510 Chelsea Lane
1259,-97.72299,30.24262,78741,1.0,1.0,125.0,East Riverside,Azul Lakeshore office 1201
1260,-97.74426,30.25516,78704,1.0,1.0,375.0,Travis Heights,Texas Department of Transportation 200
1261,-97.72666,30.24451,78741,1.0,1.0,150.0,East Riverside,Lakeshore Austin
1262,-97.71759,30.28436,78722,2.0,2.0,425.0,Upper Boggy Creek,The Vortex Parking Lot Maple Avenue
1263,-97.75762,30.24112,78704,1.0,1.0,200.0,Dawson,307 West Oltorf Street
1264,-97.71908,30.29045,78722,1.0,1.0,140.0,Upper Boggy Creek,3311 Werner Avenue
1265,-97.75918,30.25159,78704,3.0,3.0,200.0,Bouldin Creek,909 Jewell Street
1266,-97.75264,30.17869,78744,1.0,1.0,200.0,McKinney,4805 Tournus Trail
1267,-97.77979,30.2435,78704,2.0,2.0,70.0,Downtown,2807 South Lamar Boulevard
1268,-97.73395,30.30219,78751,1.0,1.0,80.0,Hyde Park,203 West 39th Street
1269,-97.72517,30.24301,78741,2.0,2.0,350.0,East Riverside,Waterloo City Lane Lakeshore
1270,-97.74162,30.27066,78701,1.0,1.0,849.0,Downtown,823 Congress 823
1271,-97.74494,30.29173,78705,1.0,1.0,150.0,West Campus,2614 Rio Grande Street
1274,-97.74229,30.29182,78705,2.0,2.0,200.0,West Campus,503 West 27th Street
1276,-97.80829,30.2904,78746,1.0,1.0,300.0,Westlake Hills,507 Buckeye Trail
1277,-97.75385,30.35017,78731,1.0,1.0,199.0,Northwest Hills,The Ridge Pool Wood Hollow Drive
1278,-97.73363,30.31538,78751,2.0,2.0,200.0,,West 47th Street The Triangle
1279,-97.76656,30.23143,78704,1.0,1.0,30.0,Galindo,3504 South 1st Street
1280,-97.76798,30.22845,78704,1.0,1.0,500.0,Dawson,3801 South 1st Street
1281,-97.73508,30.31367,78751,1.0,1.0,150.0,,637 810
1282,-97.72807,30.23216,78741,1.0,1.0,75.0,East Riverside,1921 Willow Creek Drive
1283,-97.79659,30.18268,78748,1.0,1.0,99.0,,657 Mairo Street
1284,-97.75142,30.29016,78705,1.0,1.0,200.0,West Campus,2530 North Lamar Boulevard
1285,-97.78992,30.27841,78746,3.0,3.0,160.0,,423 Ridgewood Road
1286,-97.73473,30.3226,78756,2.0,2.0,370.0,Brentwood,5204 Grover Avenue
1287,-97.72593,30.2305,78741,2.0,2.0,250.0,East Riverside,2302 South Pleasant Valley Road
1288,-97.7361,30.23294,78741,1.0,1.0,250.0,East Riverside,The Church of Jesus Christ of Latter-day Saints 2111
1289,-97.71621,30.31432,78751,3.0,3.0,242.0,North Loop,5205 Eilers Avenue
1290,-97.73059,30.26878,78702,1.0,1.0,105.0,East Downtown,Ebenezer Baptist Church 1010
1291,-97.746,30.28677,78705,1.0,1.0,80.0,West Campus,715 West 23rd Street
1292,-97.71052,30.27805,78702,3.0,3.0,220.0,East Downtown,1601 Miriam Avenue
1293,-97.74876,30.29142,78705,1.0,1.0,75.0,West Campus,1010 West 26th Street
1294,-97.74154,30.29372,78705,2.0,2.0,200.0,University of Texas,The Villas on Guadalupe 2810
1295,-97.72922,30.29164,78705,2.0,2.0,550.0,Hancock,725 East 32nd Street
1296,-97.72468,30.31163,78751,2.0,2.0,108.0,Dawson,4711 Avenue F
1298,-97.75935,30.27409,78703,1.0,1.0,200.0,Old West Austin,612 Winflo Drive
1299,-97.7751,30.18026,78744,1.0,1.0,175.0,,7501 South Interstate 35
1300,-97.69929,30.39845,78758,1.0,1.0,170.0,Gracywoods,1718 Kimmerling Lane
1301,-97.73168,30.23846,78741,1.0,1.0,175.0,East Riverside,1616 Royal Crest Drive
1302,-97.73681,30.26472,78701,1.0,1.0,395.0,Downtown,Austin Convention Center Parking Garage 601
1303,-97.82276,30.17311,78748,1.0,1.0,22.0,,1905 West Slaughter Lane
1304,-97.73899,30.23902,78704,1.0,1.0,150.0,Travis Heights,1920 I 35 Frontage Road
1305,-97.75303,30.24014,78704,1.0,1.0,70.0,South Congress,2300 South Congress Avenue
1306,-97.82877,30.23284,78749,1.0,1.0,88.0,,Office Depot Staggerbrush Road
1307,-97.70515,30.31352,78723,3.0,3.0,216.0,Windsor Park,1045 Reinli Street
1308,-97.76093,30.28161,78703,2.0,2.0,150.0,Capitol Hill,1629 Waterston Avenue
1309,-97.77916,30.25708,78704,2.0,2.0,99.0,,1802 Westridge Drive
1310,-97.79789,30.38585,78750,4.0,4.0,380.0,Bull Creek,7701 Jester Boulevard
1311,-97.78347,30.29732,78703,2.0,2.0,159.0,Tarrytown,1603 Scenic Drive
1312,-97.72692,30.39584,78758,1.0,1.0,95.0,,The Domain 11410
1313,-97.72344,30.25894,78702,3.0,3.0,429.0,East Downtown,301 Chicon Street
1314,-97.72752,30.32328,78751,1.0,1.0,60.0,North Loop,Titaya's Thai Cuisine 5501
1315,-97.8005,30.26083,78746,1.0,1.0,220.0,Westlake Hills,1925 Holly Hill Drive
1316,-97.75125,30.3026,78703,5.0,5.0,275.0,Bryker Woods,1503 West 32nd Street
1317,-97.73858,30.24411,78704,2.0,2.0,178.0,Barton Hills,1510 Chelsea Lane
1318,-97.794,30.22234,78745,2.0,2.0,322.0,Zilker,4809 Pawnee Pathway
1319,-97.75561,30.25162,78704,2.0,2.0,182.0,Bouldin Creek,702 West Elizabeth Street
1320,-97.72707,30.30747,78751,1.0,1.0,80.0,Hyde Park,Avenue G Hyde Park
1321,-97.7529,30.25764,78704,1.0,1.0,75.0,South First,603 South 3rd Street
1322,-97.80954,30.27235,78746,1.0,1.0,71.0,Westlake Hills,3603 Ripple Creek Drive
1323,-97.73003,30.22709,78741,1.0,1.0,145.0,Parker Lane,2401 Ware Road
1325,-97.764,30.24384,78704,3.0,3.0,550.0,Bouldin Creek,2311 South 5th Street
1326,-97.75296,30.26811,78703,2.0,2.0,500.0,,Walter Seaholm Drive Seaholm
1327,-97.72254,30.25566,78702,1.0,1.0,90.0,Holly,2014 Willow Street
1328,-97.74686,30.31137,78756,1.0,1.0,195.0,Rosedale,4010 Ramsey Avenue
1329,-97.74026,30.26408,78701,3.0,3.0,326.0,Downtown,Austin Convention Center 500
1330,-97.73301,30.30384,78751,3.0,3.0,319.0,St. Edwards,4002 Avenue D
1331,-97.75232,30.35702,78731,1.0,1.0,150.0,Northwest Hills,Austin Travis County
1332,-97.71478,30.36685,78758,1.0,1.0,40.0,,9002 West Pointer Lane
1333,-97.78326,30.25383,78704,3.0,3.0,600.0,Barton Hills,Barton Hills Elementary School 2108
1334,-97.74042,30.24505,78704,2.0,2.0,195.0,Travis Heights,1502 Kenwood Avenue
1335,-97.74771,30.26635,78701,1.0,1.0,142.0,Downtown,412 West 3rd Street
1336,-97.74724,30.28855,78705,2.0,2.0,185.0,West Campus,2401 San Gabriel Street
1337,-97.72492,30.2518,78702,3.0,3.0,104.0,Holly,2007 Haskell Street
1338,-97.7978,30.46104,78750,2.0,2.0,170.0,Anderson Mill,Fitness Connection North Lake Creek Parkway
1339,-97.7195,30.30931,78751,4.0,4.0,450.0,Hancock,4709 Eilers Avenue
1340,-97.77959,30.23323,78704,1.0,1.0,689.0,South Lamar,1510 Rockdale Circle
1341,-97.69854,30.36865,78758,1.0,1.0,75.0,,9610 Blue Creek Lane
1342,-97.75762,30.24472,78704,3.0,3.0,375.0,South First,2104 South 1st Street
1344,-97.72928,30.24458,78741,3.0,3.0,239.0,East Riverside,1717 South Lakeshore Boulevard
1345,-97.74076,30.26868,78701,2.0,2.0,567.0,Downtown,Omni Austin Hotel Downtown 700
1346,-97.74768,30.24406,78704,2.0,2.0,201.0,Travis Heights,1908 Newning Avenue
1347,-97.73389,30.25596,78702,4.0,4.0,470.0,East Downtown,1205 Holly Street
1348,-97.75225,30.24336,78704,1.0,1.0,53.0,South Congress,2020 Condominiums South Congress Avenue
1350,-97.74944,30.28918,78705,1.0,1.0,38.0,West Campus,2408 Leon Street
1351,-97.71299,30.27968,78702,1.0,1.0,50.0,East Downtown,1711 Walnut Avenue
1352,-97.7413,30.31948,78756,2.0,2.0,100.0,Allendale,2109 West 48th Street
1353,-97.76158,30.25437,78704,1.0,1.0,250.0,South Lamar,Gibson Flats 1219
1354,-97.871,30.22621,78749,4.0,4.0,618.0,Oak Hill,6422 Ira Ingram Drive
1355,-97.77927,30.24083,78704,3.0,3.0,846.0,South Lamar,3008 Del Curto Road
1356,-97.70197,30.27772,78702,2.0,2.0,100.0,,3106 East 13th Street
1357,-97.81503,30.19867,78745,3.0,3.0,524.0,South Austin,2309 Burly Oak Drive
1358,-97.72702,30.25405,78702,1.0,1.0,170.0,East Downtown,1800 Holly Street
1359,-97.74821,30.28941,78705,1.0,1.0,35.0,West Campus,1006 West 25th Street
1360,-97.7879,30.2184,78745,3.0,3.0,325.0,South Manchaca,5006 Brighton Road
1363,-97.69059,30.30287,78723,2.0,2.0,182.0,Windsor Park,5116 Waterbrook Drive
1365,-97.68422,30.27972,78721,1.0,1.0,40.0,MLK & 183,4705 Ribbecke Avenue
1366,-97.75987,30.24381,78704,1.0,1.0,150.0,South First,615 Fletcher Street
1367,-97.76636,30.26137,78704,1.0,1.0,1000.0,Zilker,703 Spofford Street
1369,-97.56062,30.24841,78725,2.0,2.0,1200.0,,5707 Dunlap Road North
1370,-97.79866,30.28725,78746,3.0,3.0,495.0,Rollingwood,803 Rocky River Road
1371,-97.69379,30.31502,78723,1.0,1.0,108.0,Windsor Park,6002 Dunbury Drive
1373,-97.75456,30.27497,78703,1.0,1.0,238.0,Old West Austin,1108 West 9th Street
1374,-97.71484,30.30784,78751,2.0,2.0,100.0,Hancock,911 Gene Johnson Street
1375,-97.71204,30.2806,78702,3.0,3.0,308.0,East Downtown,1807 Ulit Avenue
1376,-97.74306,30.28792,78705,1.0,1.0,40.0,West Campus,2401 Nueces Street
1378,-97.7911,30.23376,78704,1.0,1.0,130.0,South Lamar,Target 2300
1379,-97.72034,30.26747,78702,1.0,1.0,94.0,East Downtown,1124 Chicon Street
1380,-97.75316,30.24671,78704,2.0,2.0,181.0,South First,211 West Annie Street
1381,-97.66318,30.36893,78754,1.0,1.0,200.0,,11111 Terrace Bluff Drive
1382,-97.76379,30.22544,78704,1.0,1.0,120.0,Dawson,3805 Wadford Street
1383,-97.70009,30.31416,78723,3.0,3.0,139.0,Windsor Park,1308 Ridgehaven Drive
1385,-97.77189,30.21971,78745,1.0,1.0,69.0,West Congress,411 West Saint Elmo Road
1386,-97.73513,30.2569,78702,3.0,3.0,205.0,East Downtown,Sánchez Elementary School 73
1387,-97.69782,30.41293,78758,2.0,2.0,106.0,Springwoods,North Star Austin
1388,-97.77405,30.28401,78703,1.0,1.0,43.0,West Austin,809 Norwalk Lane
